address,category,id,lat,lng,location,name,originalId,polarity,subCategory,details,reviews
"Sheikh Zayed Road",poi,114593,25.196359556279,55.246982574463,Dubai,"Al Safa Area منطقة الصفا",4b0587eff964a52005a822e3,0,"Monument / Landmark",http://tour-pedia.org/api/getPlaceDetails?id=114593,http://tour-pedia.org/api/getReviewsByPlaceId?placeId=114593
"Sikkat Al Khali Street",poi,114595,25.270809255043,55.299308655185,Dubai,"Perfume Souk",4b0587eff964a5200ba822e3,0,"Monument / Landmark",http://tour-pedia.org/api/getPlaceDetails?id=114595,http://tour-pedia.org/api/getReviewsByPlaceId?placeId=114595
"Hor Al-Anz (Next to Al-Shaab Colony)",poi,114599,25.283394498659,55.340318891783,Dubai,"Hor Al Anz Mosque",4b0587eff964a52011a822e3,0,"Monument / Landmark",http://tour-pedia.org/api/getPlaceDetails?id=114599,http://tour-pedia.org/api/getReviewsByPlaceId?placeId=114599
"Off Sheikh Rashid Road",poi,114602,25.243496643564,55.341534266489,Dubai,"Dubai Tennis Stadium",4b0587eff964a52018a822e3,0,"Monument / Landmark",http://tour-pedia.org/api/getPlaceDetails?id=114602,http://tour-pedia.org/api/getReviewsByPlaceId?placeId=114602
Shindagha,poi,114622,25.269091,55.290927,Dubai,"H.H. Sheikh Saeed House",4b0587eff964a520f4a722e3,0,"Monument / Landmark",http://tour-pedia.org/api/getPlaceDetails?id=114622,http://tour-pedia.org/api/getReviewsByPlaceId?placeId=114622
Hatta,poi,114624,24.810819514778,56.12798682232,Dubai,"Hatta Village",4b0587eff964a520f6a722e3,0,"Monument / Landmark",http://tour-pedia.org/api/getPlaceDetails?id=114624,http://tour-pedia.org/api/getReviewsByPlaceId?placeId=114624
"Jumeirah Beach Road",poi,114626,25.222801361656,55.256810188293,Dubai,"Dubai Zoo حديقة الحيوان",4b0587eff964a520f8a722e3,0,"Monument / Landmark",http://tour-pedia.org/api/getPlaceDetails?id=114626,http://tour-pedia.org/api/getReviewsByPlaceId?placeId=114626
"Al Fahidi Street and Al Mankhool Road",poi,114628,25.263986318717,55.299940109253,Dubai,"Al Bastakiya البستكية",4b0587eff964a520faa722e3,0,"Monument / Landmark",http://tour-pedia.org/api/getPlaceDetails?id=114628,http://tour-pedia.org/api/getReviewsByPlaceId?placeId=114628
"Jumeirah Road",poi,114630,25.186281249046,55.230454889255,Dubai,"Umm Al Sheif Majlis",4b0587eff964a520fca722e3,0,"Monument / Landmark",http://tour-pedia.org/api/getPlaceDetails?id=114630,http://tour-pedia.org/api/getReviewsByPlaceId?placeId=114630
"13B Street",poi,114633,25.16066,55.31075,Dubai,"Godolphin Gallery",4b0587eff964a520ffa722e3,0,"Monument / Landmark",http://tour-pedia.org/api/getPlaceDetails?id=114633,http://tour-pedia.org/api/getReviewsByPlaceId?placeId=114633
"Sheikh Zayed Rd.",poi,114682,25.225674280762,55.28826713562,Dubai,"Dubai World Trade Center مركز دبي التجاري العالمي",4b0587f3f964a520d2a822e3,0,"Convention Center",http://tour-pedia.org/api/getPlaceDetails?id=114682,http://tour-pedia.org/api/getReviewsByPlaceId?placeId=114682
"Umm Al Rammol",poi,114683,25.236660629095,55.376554727554,Dubai,"Hertz Car Rentals",4b0587f3f964a520d7a822e3,0,"Rental Car Location",http://tour-pedia.org/api/getPlaceDetails?id=114683,http://tour-pedia.org/api/getReviewsByPlaceId?placeId=114683
"The Dubai Mall, Level 2",poi,114698,25.197417727097,55.276384949684,Dubai,"Book World By Kinokuniya مكتبة كينوكونيا",4b07ca94f964a5200b0023e3,0,Bookstore,http://tour-pedia.org/api/getPlaceDetails?id=114698,http://tour-pedia.org/api/getReviewsByPlaceId?placeId=114698
"Airport Rd.",poi,114702,25.25042127943,55.357854366302,Dubai,"Dubai International Airport (DXB) مطار دبي الدولي",4b08d1d7f964a520a11223e3,0,Airport,http://tour-pedia.org/api/getPlaceDetails?id=114702,http://tour-pedia.org/api/getReviewsByPlaceId?placeId=114702
"AlWasl Road",poi,114739,25.224043713381,55.264234542847,Dubai,"Scandinavian Dental Clinic عيادة الأسنان الإسكندنافية",4b1df75cf964a5208b1624e3,0,"Dentist's Office",http://tour-pedia.org/api/getPlaceDetails?id=114739,http://tour-pedia.org/api/getReviewsByPlaceId?placeId=114739
"Red Line (16)",poi,114745,25.254166856573,55.330238342285,Dubai,"Deira City Centre Metro Station | محطة ديرة سيتي سنتر",4b209132f964a520333324e3,0,Subway,http://tour-pedia.org/api/getPlaceDetails?id=114745,http://tour-pedia.org/api/getReviewsByPlaceId?placeId=114745
"Oud Metha Road شارع عود ميثاء",poi,114761,25.24360907889,55.320678949356,Dubai,"Rashid Hospital - The Emergency & Trauma Center مركز الإصابات والطوارئ - مستشفى راشد",4b2a91e7f964a52097ab24e3,0,"Medical Center",http://tour-pedia.org/api/getPlaceDetails?id=114761,http://tour-pedia.org/api/getReviewsByPlaceId?placeId=114761
"Dubai Mall - دبي مول",poi,114775,25.199854397409,55.277109146118,Dubai,"The Dubai Mall Medical Centre (TDMMC) - مركز دبي مول الطبي",4b3b4e1df964a5204f7225e3,0,"Medical Center",http://tour-pedia.org/api/getPlaceDetails?id=114775,http://tour-pedia.org/api/getReviewsByPlaceId?placeId=114775
"Al Wasl Road",poi,114793,25.1881,55.239798,Dubai,"Jumeira Library",4b495f83f964a5209e6e26e3,0,Library,http://tour-pedia.org/api/getPlaceDetails?id=114793,http://tour-pedia.org/api/getReviewsByPlaceId?placeId=114793
"DXB Intl Airport T1",poi,114795,25.252070900176,55.354828834534,Dubai,"Food Court T1",4b4bf2f6f964a520f0ab26e3,0,"Airport Food Court",http://tour-pedia.org/api/getPlaceDetails?id=114795,http://tour-pedia.org/api/getReviewsByPlaceId?placeId=114795
114815,"Nakheel Harbour & Tower Metro Station Car Park","Sheikh Zayed Road - Dubai - United Arab Emirates",poi,Dubai,25.056938,55.127816,http://tour-pedia.org/api/getPlaceDetails?id=114815,http://tour-pedia.org/api/getReviewsByPlaceId?placeId=114815
"Al Sufouh Street",poi,114824,25.103806905661,55.164220333099,Dubai,"Knowledge Village قرية المعرفة",4b5424b9f964a52027b327e3,0,"Convention Center",http://tour-pedia.org/api/getPlaceDetails?id=114824,http://tour-pedia.org/api/getReviewsByPlaceId?placeId=114824
"Dubai Healthcare City",poi,114826,25.231604314693,55.320872068405,Dubai,"Dr. Sulaiman Al Habib Hospital مستشفى الدكتور سليمان الحبيب",4b5441d0f964a520beb527e3,0,Hospital,http://tour-pedia.org/api/getPlaceDetails?id=114826,http://tour-pedia.org/api/getReviewsByPlaceId?placeId=114826
"Al Wasl",poi,114834,25.199839355152,55.262424726285,Dubai,"DEWA Customer Service Center",4b55b4faf964a5209cec27e3,0,"Government Building",http://tour-pedia.org/api/getPlaceDetails?id=114834,http://tour-pedia.org/api/getReviewsByPlaceId?placeId=114834
"SZR, Behind the EPPCO Station next to the RTA Bldg",poi,114837,25.122206482527,55.205225944519,Dubai,"RTA Licensing Agency مؤسسة الرخص في هيئة الطرق والمواصلات",4b569838f964a5202c1628e3,0,"Government Building",http://tour-pedia.org/api/getPlaceDetails?id=114837,http://tour-pedia.org/api/getReviewsByPlaceId?placeId=114837
"Dubai Media City",poi,114848,25.095872075092,55.156713429644,Dubai,"Media City Free Parking",4b590432f964a520a27828e3,0,Parking,http://tour-pedia.org/api/getPlaceDetails?id=114848,http://tour-pedia.org/api/getReviewsByPlaceId?placeId=114848
"Emirates Towers Hotel",poi,114862,25.218519,55.282367,Dubai,"Godolphin Ballroom",4b5c3f5af964a520822829e3,0,"Convention Center",http://tour-pedia.org/api/getPlaceDetails?id=114862,http://tour-pedia.org/api/getReviewsByPlaceId?placeId=114862
114871,"American Hospital","Dubai - United Arab Emirates",poi,Dubai,25.235661,55.313312,http://tour-pedia.org/api/getPlaceDetails?id=114871,http://tour-pedia.org/api/getReviewsByPlaceId?placeId=114871
"Sheikh Zayed Rd",poi,114878,25.020689749951,55.098773335186,Dubai,"Dubai Bound, SZ Road",4b612052f964a5208c0a2ae3,0,Road,http://tour-pedia.org/api/getPlaceDetails?id=114878,http://tour-pedia.org/api/getReviewsByPlaceId?placeId=114878
"Knowledge Village",poi,114903,25.103398858316,55.163040161133,Dubai,"KV Convention Centre",4b659aecf964a5201cf62ae3,0,"Convention Center",http://tour-pedia.org/api/getPlaceDetails?id=114903,http://tour-pedia.org/api/getReviewsByPlaceId?placeId=114903
"Mall of the Emirates",poi,114921,25.1186705592,55.199046134949,Dubai,Borders,4b6aa6d6f964a520cbda2be3,0,Bookstore,http://tour-pedia.org/api/getPlaceDetails?id=114921,http://tour-pedia.org/api/getReviewsByPlaceId?placeId=114921
"Sheikh Zayed Rd",poi,114948,25.186990504808,55.257200824892,Dubai,"Emirates Holidays",4b6e4000f964a52041b42ce3,0,"Government Building",http://tour-pedia.org/api/getPlaceDetails?id=114948,http://tour-pedia.org/api/getReviewsByPlaceId?placeId=114948
Satwa,poi,114952,25.228842,55.274818,Dubai,"Typing Shops for the Medical Center",4b6ef075f964a52025d22ce3,0,"Government Building",http://tour-pedia.org/api/getPlaceDetails?id=114952,http://tour-pedia.org/api/getReviewsByPlaceId?placeId=114952
,poi,114953,25.231039344912,55.2760634092,Dubai,"Satwa Medical Center (Visa Renewal)",4b6ef3def964a520e7d22ce3,0,"Medical Center",http://tour-pedia.org/api/getPlaceDetails?id=114953,http://tour-pedia.org/api/getReviewsByPlaceId?placeId=114953
Jumeirah,poi,114955,25.210027697181,55.246510505676,Dubai,"Jumeirah Road شارع جميرا",4b702a1bf964a520a4092de3,0,Road,http://tour-pedia.org/api/getPlaceDetails?id=114955,http://tour-pedia.org/api/getReviewsByPlaceId?placeId=114955
114958,"Bur Dubai Police Station","Dubai - United Arab Emirates",poi,Dubai,25.231789,55.289124,http://tour-pedia.org/api/getPlaceDetails?id=114958,http://tour-pedia.org/api/getReviewsByPlaceId?placeId=114958
"Banyias Street, Opposite Land Department and DED",poi,114973,25.259882035372,55.315411090851,Dubai,"Dubai Chamber of Commerce & Industry غرفة تجارة وصناعة دبي",4b73ca7ef964a520f5bb2de3,0,"Embassy / Consulate",http://tour-pedia.org/api/getPlaceDetails?id=114973,http://tour-pedia.org/api/getReviewsByPlaceId?placeId=114973
"Umm Suqqeim",poi,114996,25.165932038206,55.233044408033,Dubai,"Top Medical Clinic",4b792a10f964a52090ed2ee3,0,"Medical Center",http://tour-pedia.org/api/getPlaceDetails?id=114996,http://tour-pedia.org/api/getReviewsByPlaceId?placeId=114996
,poi,115001,25.137202806502,55.214272166827,Dubai,"Street 33",4b7aef8df964a52034472fe3,0,Road,http://tour-pedia.org/api/getPlaceDetails?id=115001,http://tour-pedia.org/api/getReviewsByPlaceId?placeId=115001
,poi,115002,25.119203,55.204332,Dubai,"Double Decker Bus RTA",4b7c15d3f964a520047c2fe3,0,"Bus Station",http://tour-pedia.org/api/getPlaceDetails?id=115002,http://tour-pedia.org/api/getReviewsByPlaceId?placeId=115002
"Sheikh Zayed Rd",poi,115007,25.210983827159,55.275639295578,Dubai,"Financial Center Metro Station محطة مترو المركز المالي",4b7d0e48f964a52054ad2fe3,0,"Train Station",http://tour-pedia.org/api/getPlaceDetails?id=115007,http://tour-pedia.org/api/getReviewsByPlaceId?placeId=115007
"Red Line (19) Interchange with Green Line (26)",poi,115020,25.25472965352,55.304274559021,Dubai,"Burjuman Station | محطة برجمان",4b7fed55f964a520e14430e3,0,Subway,http://tour-pedia.org/api/getPlaceDetails?id=115020,http://tour-pedia.org/api/getReviewsByPlaceId?placeId=115020
"Port Rashid",poi,115036,25.272656,55.280326,Dubai,"Costa Deliziosa",4b83fbdef964a520a51931e3,0,"Boat or Ferry",http://tour-pedia.org/api/getPlaceDetails?id=115036,http://tour-pedia.org/api/getReviewsByPlaceId?placeId=115036
Ghusais,poi,115056,25.272585,55.372932,Dubai,"Zulekha Hospital, Ghusais",4b88ce54f964a520420e32e3,0,Hospital,http://tour-pedia.org/api/getPlaceDetails?id=115056,http://tour-pedia.org/api/getReviewsByPlaceId?placeId=115056
,poi,115063,25.186316140099,55.238234470327,Dubai,"Al Safa Community Medical Centre",4b8940f1f964a520332632e3,0,"Medical Center",http://tour-pedia.org/api/getPlaceDetails?id=115063,http://tour-pedia.org/api/getReviewsByPlaceId?placeId=115063
"Um al Romool",poi,115066,25.234321745886,55.3560090065,Dubai,"RTA Headquarters المقر الرئيسي لهيئة الطرق والمواصلات",4b8a2f2af964a520376332e3,0,"City Hall",http://tour-pedia.org/api/getPlaceDetails?id=115066,http://tour-pedia.org/api/getReviewsByPlaceId?placeId=115066
"Dubai Intl convention & exhibition center",poi,115075,25.112506449786,55.204353667448,Dubai,"TechEd Middle East",4b8bb25bf964a52069a732e3,0,"Convention Center",http://tour-pedia.org/api/getPlaceDetails?id=115075,http://tour-pedia.org/api/getReviewsByPlaceId?placeId=115075
"Baniyas Road, Opposite Chamber of Commerce",poi,115078,25.261808057953,55.31571149826,Dubai,"Dubai Land Department دائرة الأراضي والأملاك",4b8ca291f964a520fdd832e3,0,"Government Building",http://tour-pedia.org/api/getPlaceDetails?id=115078,http://tour-pedia.org/api/getReviewsByPlaceId?placeId=115078
"Beirut - Airport Road",poi,115079,25.242522196752,55.381994247437,Dubai,"Airport Tunnel نفق المطار",4b8ca54ef964a5204fd932e3,0,Road,http://tour-pedia.org/api/getPlaceDetails?id=115079,http://tour-pedia.org/api/getReviewsByPlaceId?placeId=115079
"Red Line (18) Interchange with Green Line (20)",poi,115101,25.26643135774,55.314735174179,Dubai,"Union Metro Station | محطة الاتحاد",4b90f6f1f964a520849c33e3,0,Subway,http://tour-pedia.org/api/getPlaceDetails?id=115101,http://tour-pedia.org/api/getReviewsByPlaceId?placeId=115101
,poi,115114,25.137514684167,55.201148986816,Dubai,"Dubai - United Arab Emirates",4b926e32f964a52006f933e3,0,"General Travel",http://tour-pedia.org/api/getPlaceDetails?id=115114,http://tour-pedia.org/api/getReviewsByPlaceId?placeId=115114
,poi,115117,25.259685031853,55.323062412258,Dubai,"riggat al buteen road",4b93c0d6f964a520ef4f34e3,0,Road,http://tour-pedia.org/api/getPlaceDetails?id=115117,http://tour-pedia.org/api/getReviewsByPlaceId?placeId=115117
"DXB Airport",poi,115128,25.250751205371,55.355129241943,Dubai,"Terminal 1",4b94ff98f964a520f58a34e3,0,"Airport Terminal",http://tour-pedia.org/api/getPlaceDetails?id=115128,http://tour-pedia.org/api/getReviewsByPlaceId?placeId=115128
"Al Wasl Rd",poi,115135,25.150519155912,55.212249541172,Dubai,"Cooper Health Clinic",4b979bd0f964a520650b35e3,0,"Doctor's Office",http://tour-pedia.org/api/getPlaceDetails?id=115135,http://tour-pedia.org/api/getReviewsByPlaceId?placeId=115135
,poi,115136,25.100445332179,55.167846679688,Dubai,"Palladium @ DMC",4b97ac12f964a520d90e35e3,0,"Convention Center",http://tour-pedia.org/api/getPlaceDetails?id=115136,http://tour-pedia.org/api/getReviewsByPlaceId?placeId=115136
,poi,115140,25.23344097483,55.318045446405,Dubai,"California Chiropractic",4b988278f964a520324535e3,0,"Medical Center",http://tour-pedia.org/api/getPlaceDetails?id=115140,http://tour-pedia.org/api/getReviewsByPlaceId?placeId=115140
"Town Centre",poi,115141,25.21528,55.250795,Dubai,"Emirates Travel Centre",4b989086f964a5201b4735e3,0,Plane,http://tour-pedia.org/api/getPlaceDetails?id=115141,http://tour-pedia.org/api/getReviewsByPlaceId?placeId=115141
"Al Manara",poi,115144,25.142776338638,55.213910787542,Dubai,"Street 8a",4b98ef81f964a520345735e3,0,Road,http://tour-pedia.org/api/getPlaceDetails?id=115144,http://tour-pedia.org/api/getReviewsByPlaceId?placeId=115144
"Jumeira 1, Villa 41",poi,115149,25.210493629479,55.248441696167,Dubai,"Dr Al Rustom's Medical & Day Care Surgery Centre",4b9a04e0f964a5204d9b35e3,0,"Doctor's Office",http://tour-pedia.org/api/getPlaceDetails?id=115149,http://tour-pedia.org/api/getReviewsByPlaceId?placeId=115149
"Dnata Travel Centre",poi,115177,25.176555,55.24584,Dubai,"Emirates Travel Centre @SZR",4b9de44ef964a520aac136e3,0,Plane,http://tour-pedia.org/api/getPlaceDetails?id=115177,http://tour-pedia.org/api/getReviewsByPlaceId?placeId=115177
"Dubai Media City",poi,115185,25.095451379038,55.152332782745,Dubai,"Al Sufouh Road",4b9fd977f964a5206e4437e3,0,Road,http://tour-pedia.org/api/getPlaceDetails?id=115185,http://tour-pedia.org/api/getReviewsByPlaceId?placeId=115185
,poi,115202,25.040597877012,55.237279518483,Dubai,"Motor City Car Park",4ba308d2f964a520dd2838e3,0,Parking,http://tour-pedia.org/api/getPlaceDetails?id=115202,http://tour-pedia.org/api/getReviewsByPlaceId?placeId=115202
"Dubai airport",poi,115203,25.248460876826,55.361187891538,Dubai,"Emirates Check-In",4ba33b37f964a520eb3038e3,0,"Airport Gate",http://tour-pedia.org/api/getPlaceDetails?id=115203,http://tour-pedia.org/api/getReviewsByPlaceId?placeId=115203
115228,"Airport Terminal 3","United Arab Emirates",poi,Dubai,25.244944,55.36052,http://tour-pedia.org/api/getPlaceDetails?id=115228,http://tour-pedia.org/api/getReviewsByPlaceId?placeId=115228
"Sheikh Zayed Road",poi,115234,25.122284193979,55.204882621765,Dubai,"Traffic Department - مكتب مرور البرشاء",4ba8bb85f964a52090ea39e3,0,"Police Station",http://tour-pedia.org/api/getPlaceDetails?id=115234,http://tour-pedia.org/api/getReviewsByPlaceId?placeId=115234
"Dubai International Airport",poi,115244,25.253832555829,55.362900636688,Dubai,"Star Alliance Lounge",4baa64f8f964a52010663ae3,0,"Airport Lounge",http://tour-pedia.org/api/getPlaceDetails?id=115244,http://tour-pedia.org/api/getReviewsByPlaceId?placeId=115244
"Sheikh Zayed Road, near the MOE",poi,115272,25.124032688572,55.206298828125,Dubai,"Notary Public الكاتب العدل",4baef75af964a52068e43be3,0,Courthouse,http://tour-pedia.org/api/getPlaceDetails?id=115272,http://tour-pedia.org/api/getReviewsByPlaceId?placeId=115272
115277,"Dubai Court","Dubai - United Arab Emirates",poi,Dubai,25.248223,55.321607,http://tour-pedia.org/api/getPlaceDetails?id=115277,http://tour-pedia.org/api/getReviewsByPlaceId?placeId=115277
,poi,115284,25.190231,55.26218,Dubai,"Abu Dhabi Investment Authority",4bb19437f964a520659a3ce3,0,"Government Building",http://tour-pedia.org/api/getPlaceDetails?id=115284,http://tour-pedia.org/api/getReviewsByPlaceId?placeId=115284
,poi,115286,25.249091862882,55.27707695961,Dubai,"Mina Police Station Dubai",4bb1bc39f964a520e2a03ce3,0,"Police Station",http://tour-pedia.org/api/getPlaceDetails?id=115286,http://tour-pedia.org/api/getReviewsByPlaceId?placeId=115286
"Jumeirah Rd.",poi,115287,25.180872475655,55.224224179788,Dubai,"Dubai Medical Village",4bb20788f964a5202cb33ce3,0,"Medical Center",http://tour-pedia.org/api/getPlaceDetails?id=115287,http://tour-pedia.org/api/getReviewsByPlaceId?placeId=115287
"Dubai International Airport مطار دبي الدولي",poi,115295,25.24705,55.361134,Dubai,"Terminal 3 مطار دبي الدولي - المبنى",4bb546c76edc76b0d48e2f1c,0,"Airport Terminal",http://tour-pedia.org/api/getPlaceDetails?id=115295,http://tour-pedia.org/api/getReviewsByPlaceId?placeId=115295
,poi,115303,25.223071647912,55.356174119078,Dubai,"Dubai London Clinic",4bb6f3f146d4a593defdc6c0,0,"Doctor's Office",http://tour-pedia.org/api/getPlaceDetails?id=115303,http://tour-pedia.org/api/getReviewsByPlaceId?placeId=115303
115315,"Emirates First Class Lounge","at Terminal 3",poi,Dubai,25.247529537251,55.362725257874,http://tour-pedia.org/api/getPlaceDetails?id=115315,http://tour-pedia.org/api/getReviewsByPlaceId?placeId=115315
Garhoud,poi,115331,25.235391,55.360975,Dubai,"Emirates Travel Agency",4bbc34112d9ea5934c63a0ce,0,Plane,http://tour-pedia.org/api/getPlaceDetails?id=115331,http://tour-pedia.org/api/getReviewsByPlaceId?placeId=115331
"Sheikh Zayed Rd.",poi,115341,25.208901686762,55.273590087891,Dubai,"Sheikh Zayed Road شارع الشيخ زايد",4bbdff5307809521293fdb91,0,Road,http://tour-pedia.org/api/getPlaceDetails?id=115341,http://tour-pedia.org/api/getReviewsByPlaceId?placeId=115341
"Al Jafiliya",poi,115345,25.234856053475,55.291232030449,Dubai,"Dubai Immigration",4bbef038ba9776b0975efec8,0,"Government Building",http://tour-pedia.org/api/getPlaceDetails?id=115345,http://tour-pedia.org/api/getReviewsByPlaceId?placeId=115345
"Umm AlSheif",poi,115369,25.265445528627,55.312855974303,Dubai,"Russian Consulate",4bc2b7a04cdfc9b6f47e9621,0,"Government Building",http://tour-pedia.org/api/getPlaceDetails?id=115369,http://tour-pedia.org/api/getReviewsByPlaceId?placeId=115369
"Dubai International Airport (DXB)",poi,115424,25.264123,55.3624,Dubai,"SQ493 DXB-SIN",4bc86d4c8b7c9c745a0f38cf,0,Plane,http://tour-pedia.org/api/getPlaceDetails?id=115424,http://tour-pedia.org/api/getReviewsByPlaceId?placeId=115424
,poi,115442,25.046438565108,55.243187441706,Dubai,"MediCentres MotorCity",4bc979a2cc8cd13ab3b9bbcf,0,"Medical Center",http://tour-pedia.org/api/getPlaceDetails?id=115442,http://tour-pedia.org/api/getReviewsByPlaceId?placeId=115442
,poi,115448,25.262014644538,55.374009987458,Dubai,"Dafza Headquarters",4bcaac84b6c49c74090c9191,0,Building,http://tour-pedia.org/api/getPlaceDetails?id=115448,http://tour-pedia.org/api/getReviewsByPlaceId?placeId=115448
"Al Mina Road, 2 buildings After Capitol Hotel (Ibn Roshd Pharmacy Building)",poi,115475,25.24088215084,55.274228453636,Dubai,"Medical Specialists Centre",4bcc7b94cc8cd13a72f4c0cf,0,"Doctor's Office",http://tour-pedia.org/api/getPlaceDetails?id=115475,http://tour-pedia.org/api/getReviewsByPlaceId?placeId=115475
,poi,115519,25.092201,55.146647,Dubai,"Arjaan Conference Centre",4bd28f92caff9521562dd3f0,0,"Meeting Room",http://tour-pedia.org/api/getPlaceDetails?id=115519,http://tour-pedia.org/api/getReviewsByPlaceId?placeId=115519
"Umm al sheif road",poi,115523,25.165469297131,55.2342798518,Dubai,"NMC hospital Jumeirah",4bd2d75db221c9b6cc58d8d0,0,Hospital,http://tour-pedia.org/api/getPlaceDetails?id=115523,http://tour-pedia.org/api/getReviewsByPlaceId?placeId=115523
"Dubai International Airport",poi,115527,25.248561264675,55.353332389699,Dubai,"Departure Gate (T1)",4bd2f9bf41b9ef3bb3f6fee5,0,"Airport Terminal",http://tour-pedia.org/api/getPlaceDetails?id=115527,http://tour-pedia.org/api/getReviewsByPlaceId?placeId=115527
"Jebel Ali",poi,115540,25.008099909349,55.085679911821,Dubai,"Immigration and Naturalization Authority",4bd50aee637ba593b7f2f570,0,"Government Building",http://tour-pedia.org/api/getPlaceDetails?id=115540,http://tour-pedia.org/api/getReviewsByPlaceId?placeId=115540
,poi,115541,25.257610382856,55.310193858249,Dubai,"Royal Consulate General of Saudi Arabia",4bd526535631c9b607c2a330,0,"Government Building",http://tour-pedia.org/api/getPlaceDetails?id=115541,http://tour-pedia.org/api/getReviewsByPlaceId?placeId=115541
"Between Khalid bin AlWaleed road and the Creek",poi,115543,25.255952272384,55.306463241577,Dubai,"Egyptian Consulate القنصلية المصرية",4bd534ae29eb9c74c10a93e1,0,"Embassy / Consulate",http://tour-pedia.org/api/getPlaceDetails?id=115543,http://tour-pedia.org/api/getReviewsByPlaceId?placeId=115543
"Always on the move",poi,115551,25.04625879945,55.131282806396,Dubai,"The Convoy",4bd6569b7b1876b0307e8c86,0,"General Travel",http://tour-pedia.org/api/getPlaceDetails?id=115551,http://tour-pedia.org/api/getReviewsByPlaceId?placeId=115551
"Jumaira Road",poi,115557,25.170717947242,55.216341018677,Dubai,"Arif Sons Travel أبناء العارف للسفريات",4bd6e03e7b1876b039228d86,0,"General Travel",http://tour-pedia.org/api/getPlaceDetails?id=115557,http://tour-pedia.org/api/getReviewsByPlaceId?placeId=115557
"Al Wasl Road",poi,115568,25.181595937349,55.232456364624,Dubai,Lively,4bd7ef4ddc4b95219e207888,0,"Medical Center",http://tour-pedia.org/api/getPlaceDetails?id=115568,http://tour-pedia.org/api/getReviewsByPlaceId?placeId=115568
"at Terminal 1",poi,115591,25.251242,55.357207,Dubai,"Marhaba Lounge",4bdab35863c5c9b6bda62468,0,"Airport Lounge",http://tour-pedia.org/api/getPlaceDetails?id=115591,http://tour-pedia.org/api/getReviewsByPlaceId?placeId=115591
,poi,115592,25.116339409856,55.220016683833,Dubai,"Marina Metro Station",4bdaba6fc79cc9286a807fe9,0,"Train Station",http://tour-pedia.org/api/getPlaceDetails?id=115592,http://tour-pedia.org/api/getReviewsByPlaceId?placeId=115592
"Khalid bin Al Whaleed Station",poi,115594,25.262753374892,55.32303540951,Dubai,"Dubai Metro",4bdad7afc79cc928ceea7fe9,0,Train,http://tour-pedia.org/api/getPlaceDetails?id=115594,http://tour-pedia.org/api/getReviewsByPlaceId?placeId=115594
"Mina Rd.",poi,115596,25.255985069451,55.283197760582,Dubai,"Dubai Customs جمارك دبي",4bdaea60c79cc928d33880e9,0,"Government Building",http://tour-pedia.org/api/getPlaceDetails?id=115596,http://tour-pedia.org/api/getReviewsByPlaceId?placeId=115596
"Town Center",poi,115604,25.21903,55.28027,Dubai,"Dubai Physiotherapy Center",4bdbbbd363c5c9b6bf822968,0,"Doctor's Office",http://tour-pedia.org/api/getPlaceDetails?id=115604,http://tour-pedia.org/api/getReviewsByPlaceId?placeId=115604
,poi,115619,24.975880050301,55.239901615091,Dubai,"Dubai Bypass Road",4bdd730ed33f2d7ffef38a3c,0,Road,http://tour-pedia.org/api/getPlaceDetails?id=115619,http://tour-pedia.org/api/getReviewsByPlaceId?placeId=115619
,poi,115620,25.139045000029,55.426544672021,Dubai,"Academic City Road",4bdd76efd33f2d7fe1fb8a3c,0,Road,http://tour-pedia.org/api/getPlaceDetails?id=115620,http://tour-pedia.org/api/getReviewsByPlaceId?placeId=115620
"Airport Rd",poi,115627,25.2410939923,55.366354975401,Dubai,"Emirates Metro Station | محطة طيران الإمارات",4bdebe7ae75c0f47ca98c803,0,Train,http://tour-pedia.org/api/getPlaceDetails?id=115627,http://tour-pedia.org/api/getReviewsByPlaceId?placeId=115627
,poi,115635,25.214135952903,55.271189504411,Dubai,"Singapore Consulate General Dubai",4bdf91cbffdec928409beca1,0,"Government Building",http://tour-pedia.org/api/getPlaceDetails?id=115635,http://tour-pedia.org/api/getReviewsByPlaceId?placeId=115635
,poi,115636,25.2453125,55.303721,Dubai,"Dubai Municipality",4bdfc1fae75c0f479645cc03,0,"Government Building",http://tour-pedia.org/api/getPlaceDetails?id=115636,http://tour-pedia.org/api/getReviewsByPlaceId?placeId=115636
,poi,115661,25.240345379416,55.2955887789,Dubai,"Bur Dubai Station",4be58adbbcef2d7f24e703e5,0,"Train Station",http://tour-pedia.org/api/getPlaceDetails?id=115661,http://tour-pedia.org/api/getReviewsByPlaceId?placeId=115661
"Al Rashidiya",poi,115666,25.219997353377,55.400886875468,Dubai,"EIDA Centre",4be620a5910020a16c08d414,0,"Government Building",http://tour-pedia.org/api/getPlaceDetails?id=115666,http://tour-pedia.org/api/getReviewsByPlaceId?placeId=115666
,poi,115667,25.242504,55.275641,Dubai,"Joint Visa Application Center",4be63889910020a15328d414,0,"Embassy / Consulate",http://tour-pedia.org/api/getPlaceDetails?id=115667,http://tour-pedia.org/api/getReviewsByPlaceId?placeId=115667
,poi,115671,25.18286,55.286799040363,Dubai,"Dubai Silicon Oasis",4be7cda988ed2d7f191dcb1d,0,"Government Building",http://tour-pedia.org/api/getPlaceDetails?id=115671,http://tour-pedia.org/api/getReviewsByPlaceId?placeId=115671
"Jebel Ali near HSBC - Jebel Ali Industrials & Free",poi,115676,25.002238907994,55.089912414551,Dubai,"Jebel Ali Police Station",4be8d8b7d837c9b623dea506,0,"Police Station",http://tour-pedia.org/api/getPlaceDetails?id=115676,http://tour-pedia.org/api/getReviewsByPlaceId?placeId=115676
"Al Riyadh street شارع الرياض",poi,115680,25.244230150032,55.317578315735,Dubai,"Rashid Hospital مستشفى راشد",4be96b66d837c9b60862a606,0,Hospital,http://tour-pedia.org/api/getPlaceDetails?id=115680,http://tour-pedia.org/api/getReviewsByPlaceId?placeId=115680
"Axis Bldg 7",poi,115681,25.120652243118,55.38688659668,Dubai,"Dubai Silicon Oasis",4be97950ee96c9288037ffbf,0,Building,http://tour-pedia.org/api/getPlaceDetails?id=115681,http://tour-pedia.org/api/getReviewsByPlaceId?placeId=115681
,poi,115684,25.196986864923,55.280473370158,Dubai,"Taxi Rest Area",4be9f28862c0c928e352e0d4,0,Road,http://tour-pedia.org/api/getPlaceDetails?id=115684,http://tour-pedia.org/api/getReviewsByPlaceId?placeId=115684
115694,"Emirates Business Class Lounge","at Terminal 3",poi,Dubai,25.248771636284,55.36066532135,http://tour-pedia.org/api/getPlaceDetails?id=115694,http://tour-pedia.org/api/getReviewsByPlaceId?placeId=115694
,poi,115713,25.233462554062,55.31835326047,Dubai,"California Chiroractic And Sport Medicine Center",4bee84a32c082d7f4a7e3042,0,"Medical Center",http://tour-pedia.org/api/getPlaceDetails?id=115713,http://tour-pedia.org/api/getReviewsByPlaceId?placeId=115713
,poi,115716,25.158126,55.218251,Dubai,"Bin Belaila Dental Clinic",4bee99abd355a593510a0b60,0,"Dentist's Office",http://tour-pedia.org/api/getPlaceDetails?id=115716,http://tour-pedia.org/api/getReviewsByPlaceId?placeId=115716
"Thalassemia Research and Genetics Center",poi,115728,25.224016172613,55.317262415567,Dubai,"Blood Donation Center",4bf108c83a15d13a0c203f9f,0,"Medical Center",http://tour-pedia.org/api/getPlaceDetails?id=115728,http://tour-pedia.org/api/getReviewsByPlaceId?placeId=115728
"Jumeira Beach Road",poi,115731,25.197375168463,55.237533092232,Dubai,"Emirates Hospital مستشفى الامارات",4bf1866b52bda593a9a6b1b7,0,"Medical Center",http://tour-pedia.org/api/getPlaceDetails?id=115731,http://tour-pedia.org/api/getReviewsByPlaceId?placeId=115731
"Jebel Ali",poi,115735,25.011611956655,55.086050033569,Dubai,DNRD,4bf21bdb3506ef3b447bbd22,0,"Government Building",http://tour-pedia.org/api/getPlaceDetails?id=115735,http://tour-pedia.org/api/getReviewsByPlaceId?placeId=115735
"Building 27, Gardens",poi,115738,25.168755,55.306323,Dubai,"Aster Medical Centre",4bf2b96e1cd9d13a8df8ed76,0,"Doctor's Office",http://tour-pedia.org/api/getPlaceDetails?id=115738,http://tour-pedia.org/api/getReviewsByPlaceId?placeId=115738
115747,"Dubai Internet City Metro Station 2","Dubai - United Arab Emirates",poi,Dubai,25.101895,55.173181,http://tour-pedia.org/api/getPlaceDetails?id=115747,http://tour-pedia.org/api/getReviewsByPlaceId?placeId=115747
"Al Khail Rd.",poi,115763,25.166066732863,55.26517868042,Dubai,"Al Khail Road شارع الخيل",4bf7b0d85efe2d7f27656934,0,Road,http://tour-pedia.org/api/getPlaceDetails?id=115763,http://tour-pedia.org/api/getReviewsByPlaceId?placeId=115763
"The Gardens",poi,115769,25.046492078358,55.129823684692,Dubai,"The New Gardens",4bf8187dc07c9c74e2c6bbef,0,Building,http://tour-pedia.org/api/getPlaceDetails?id=115769,http://tour-pedia.org/api/getReviewsByPlaceId?placeId=115769
"Red Line (15)",poi,115779,25.249664387121,55.340194702148,Dubai,"GGICO Metro Station | محطة جي جي كو",4bf99ca55ec320a12c8e8ad3,0,"Train Station",http://tour-pedia.org/api/getPlaceDetails?id=115779,http://tour-pedia.org/api/getReviewsByPlaceId?placeId=115779
"Dubai Mall",poi,115783,25.183662243101,55.271615892604,Dubai,"Dubai Mall Medical Centre",4bfa25f05ec320a1954f8bd3,0,"Doctor's Office",http://tour-pedia.org/api/getPlaceDetails?id=115783,http://tour-pedia.org/api/getReviewsByPlaceId?placeId=115783
"Jebal Ali Free Zone",poi,115791,25.008106458797,55.085744539146,Dubai,"Nationalization and Residency Adminstration",4bfb593fd2b720a1a3f1326a,0,"Government Building",http://tour-pedia.org/api/getPlaceDetails?id=115791,http://tour-pedia.org/api/getReviewsByPlaceId?placeId=115791
,poi,115804,25.091612810332,55.328020259687,Dubai,"Emirates Road",4bfe89fff7c82d7f13b78f04,0,Road,http://tour-pedia.org/api/getPlaceDetails?id=115804,http://tour-pedia.org/api/getReviewsByPlaceId?placeId=115804
"Bur Dubai",poi,115827,25.259288463477,55.29915748147,Dubai,"Lebanese consolate",4c01f538cbeec928332b5afe,0,"Embassy / Consulate",http://tour-pedia.org/api/getPlaceDetails?id=115827,http://tour-pedia.org/api/getReviewsByPlaceId?placeId=115827
,poi,115833,25.237776458062,55.272047680268,Dubai,"Royal Medical Center",4c0361d6f56c2d7f99de1c66,0,"Medical Center",http://tour-pedia.org/api/getPlaceDetails?id=115833,http://tour-pedia.org/api/getReviewsByPlaceId?placeId=115833
"Khalid Bin Waleed Str.",poi,115845,25.253452376759,55.308606347353,Dubai,"Jordan Consulate",4c076376cf8c76b006f63b65,0,"Embassy / Consulate",http://tour-pedia.org/api/getPlaceDetails?id=115845,http://tour-pedia.org/api/getReviewsByPlaceId?placeId=115845
"Jumeira Beach Rd - Next to Mashriq Bank",poi,115877,25.237155573714,55.267689228058,Dubai,"Orthosports Medical Centre مركز الطبي الرياضي والعظام",4c0c9e0a2466a5937c5a7621,0,"Doctor's Office",http://tour-pedia.org/api/getPlaceDetails?id=115877,http://tour-pedia.org/api/getReviewsByPlaceId?placeId=115877
Jumeirah,poi,115889,25.209936232407,55.246840306109,Dubai,"Umm Al Sheif St",4c0f8c7ec6cf76b0b46a8251,0,Road,http://tour-pedia.org/api/getPlaceDetails?id=115889,http://tour-pedia.org/api/getReviewsByPlaceId?placeId=115889
,poi,115910,25.278532843442,55.395692443475,Dubai,"Shamil Car Registration Center",4c134047a9c220a1a584559d,0,"Rental Car Location",http://tour-pedia.org/api/getPlaceDetails?id=115910,http://tour-pedia.org/api/getReviewsByPlaceId?placeId=115910
,poi,115912,25.029777017821,55.114390055365,Dubai,"Jebel Ali Hospital",4c14b74fa5eb76b0fe27c2b7,0,Hospital,http://tour-pedia.org/api/getPlaceDetails?id=115912,http://tour-pedia.org/api/getReviewsByPlaceId?placeId=115912
,poi,115913,25.221052044987,55.262899642135,Dubai,Dermacare,4c14c4f37f7f2d7fa359e168,0,"Doctor's Office",http://tour-pedia.org/api/getPlaceDetails?id=115913,http://tour-pedia.org/api/getReviewsByPlaceId?placeId=115913
,poi,115915,25.202198936799,55.310679836804,Dubai,"Oud Mehta Road",4c1512bea1010f475f604d18,0,Road,http://tour-pedia.org/api/getPlaceDetails?id=115915,http://tour-pedia.org/api/getReviewsByPlaceId?placeId=115915
,poi,115916,25.181534872572,55.316274186771,Dubai,"Ras Al Khor Road",4c15132ea1010f4736614d18,0,Road,http://tour-pedia.org/api/getPlaceDetails?id=115916,http://tour-pedia.org/api/getReviewsByPlaceId?placeId=115916
,poi,115919,25.164865,55.22868106,Dubai,"General Consulate of China",4c15d61882a3c9b67e6ffff8,0,"Embassy / Consulate",http://tour-pedia.org/api/getPlaceDetails?id=115919,http://tour-pedia.org/api/getReviewsByPlaceId?placeId=115919
"Fortune Tower - JLT",poi,115923,25.072227791172,55.147247314453,Dubai,"German Dental Center",4c1745cc127f95217c612525,0,"Dentist's Office",http://tour-pedia.org/api/getPlaceDetails?id=115923,http://tour-pedia.org/api/getReviewsByPlaceId?placeId=115923
"Al Qusais, Beirut St",poi,115933,25.266276118631,55.391435623169,Dubai,"Qusais Police Station مركز شرطة القصيص",4c190c8323a29c74bceb1853,0,"Police Station",http://tour-pedia.org/api/getPlaceDetails?id=115933,http://tour-pedia.org/api/getReviewsByPlaceId?placeId=115933
,poi,115956,24.991872472904,55.091264971412,Dubai,"Chalhoub Group Jafza",4c1dc31db306c928ff2466b7,0,"General Travel",http://tour-pedia.org/api/getPlaceDetails?id=115956,http://tour-pedia.org/api/getReviewsByPlaceId?placeId=115956
"Knowledge Village - 12",poi,115967,25.101590739975,55.182196254007,Dubai,"Dubai Health Authority",4c2042f2920076b0d30cc6e9,0,"Government Building",http://tour-pedia.org/api/getPlaceDetails?id=115967,http://tour-pedia.org/api/getReviewsByPlaceId?placeId=115967
"Jebel ali village",poi,115970,25.240517,55.295978,Dubai,"Jebel Ali Earth Station",4c207d6763750f4760a4bc67,0,"Train Station",http://tour-pedia.org/api/getPlaceDetails?id=115970,http://tour-pedia.org/api/getReviewsByPlaceId?placeId=115970
"thuraya towers 1",poi,115971,25.090865312548,55.15349149704,Dubai,"The Annoying Elevators",4c2081f4b4e62d7f7a2ae193,0,"General Travel",http://tour-pedia.org/api/getPlaceDetails?id=115971,http://tour-pedia.org/api/getReviewsByPlaceId?placeId=115971
,poi,115973,25.096888542161,55.157618971987,Dubai,"Loft Office 2",4c20c3284889a5937cda2620,0,Office,http://tour-pedia.org/api/getPlaceDetails?id=115973,http://tour-pedia.org/api/getReviewsByPlaceId?placeId=115973
"Alphamed Building",poi,115977,25.279082677634,55.345129966736,Dubai,"Bayer Healthcare",4c20fc27d4dec928ae471c3e,0,Hospital,http://tour-pedia.org/api/getPlaceDetails?id=115977,http://tour-pedia.org/api/getReviewsByPlaceId?placeId=115977
,poi,115981,25.242065656571,55.345180492932,Dubai,"Al Garhood",4c2277329085d13ac66086cc,0,Road,http://tour-pedia.org/api/getPlaceDetails?id=115981,http://tour-pedia.org/api/getReviewsByPlaceId?placeId=115981
"Al Wasl Road",poi,115992,25.159774202264,55.219774246216,Dubai,"Jumeira Islamic Learning Centre",4c25cee0905a0f4700276260,0,"College Library",http://tour-pedia.org/api/getPlaceDetails?id=115992,http://tour-pedia.org/api/getReviewsByPlaceId?placeId=115992
,poi,116002,25.263598212756,55.290713310242,Dubai,"RTA multi storey Parking",4c285e13ed0ac9b68c1f60aa,0,"General Travel",http://tour-pedia.org/api/getPlaceDetails?id=116002,http://tour-pedia.org/api/getReviewsByPlaceId?placeId=116002
,poi,116004,25.181181177943,55.224526264359,Dubai,"MEDWIN medical center",4c28ac25e19720a1e13cf858,0,"Medical Center",http://tour-pedia.org/api/getPlaceDetails?id=116004,http://tour-pedia.org/api/getReviewsByPlaceId?placeId=116004
,poi,116009,25.271102018302,55.334533942031,Dubai,"Salahuddin Street",4c29b8adce3fc92873236f88,0,Road,http://tour-pedia.org/api/getPlaceDetails?id=116009,http://tour-pedia.org/api/getReviewsByPlaceId?placeId=116009
"Airport Road",poi,116011,25.247083154809,55.353112220764,Dubai,"Al Garhoud Area",4c2a149ced0ac9b692bd62aa,0,"General Travel",http://tour-pedia.org/api/getPlaceDetails?id=116011,http://tour-pedia.org/api/getReviewsByPlaceId?placeId=116011
116013,"Ministry of Labour",,poi,Dubai,25.280428268298,55.378592468426,http://tour-pedia.org/api/getPlaceDetails?id=116013,http://tour-pedia.org/api/getReviewsByPlaceId?placeId=116013
,poi,116027,25.25623,55.370729,Dubai,SV555,4c2e0962e307d13a2bc90eda,0,Plane,http://tour-pedia.org/api/getPlaceDetails?id=116027,http://tour-pedia.org/api/getReviewsByPlaceId?placeId=116027
"Level 5, Building 6, Gate Precinct, DIFC",poi,116041,25.215579941037,55.279598236084,Dubai,UBS,4c301f3e16adc9281dd0be9c,0,"Airport Terminal",http://tour-pedia.org/api/getPlaceDetails?id=116041,http://tour-pedia.org/api/getReviewsByPlaceId?placeId=116041
,poi,116045,25.124492576649,55.186585220309,Dubai,"Al Sufouh",4c312c103896e21ef1aee690,0,Road,http://tour-pedia.org/api/getPlaceDetails?id=116045,http://tour-pedia.org/api/getReviewsByPlaceId?placeId=116045
"B1 floor EGHQ building",poi,116057,25.242259,55.365152,Dubai,"EK clinic EGHQ",4c3565fea0ced13a82d5196e,0,"Doctor's Office",http://tour-pedia.org/api/getPlaceDetails?id=116057,http://tour-pedia.org/api/getReviewsByPlaceId?placeId=116057
"Al Nahda St",poi,116058,25.261803672413,55.291825874165,Dubai,"Al Gubaiba Bus Station",4c357d1a3896e21e9353ed90,0,"Bus Station",http://tour-pedia.org/api/getPlaceDetails?id=116058,http://tour-pedia.org/api/getReviewsByPlaceId?placeId=116058
"Al Fattan Marine Towers, JBR",poi,116069,25.079457698363,55.136196613312,Dubai,"Lifeline Medical Centre",4c36c2970a71c9b61cbf3dc9,0,"Doctor's Office",http://tour-pedia.org/api/getPlaceDetails?id=116069,http://tour-pedia.org/api/getReviewsByPlaceId?placeId=116069
"Dubai Sharjah Road",poi,116103,25.274270674569,55.35165309906,Dubai,"Dubai Police General H.Q. القيادة العامة لشرطة دبي",4c3ec52e51dee21e8515eb6e,0,"Police Station",http://tour-pedia.org/api/getPlaceDetails?id=116103,http://tour-pedia.org/api/getReviewsByPlaceId?placeId=116103
Mirdif,poi,116104,25.265890057026,55.379013982356,Dubai,"Mirdif city center parking",4c3f35a1cc410f4750cca761,0,Parking,http://tour-pedia.org/api/getPlaceDetails?id=116104,http://tour-pedia.org/api/getReviewsByPlaceId?placeId=116104
Garhoud,poi,116114,25.230435530243,55.356017443359,Dubai,"Umm Ramool",4c42f00ae26920a13bbd60e7,0,Road,http://tour-pedia.org/api/getPlaceDetails?id=116114,http://tour-pedia.org/api/getReviewsByPlaceId?placeId=116114
,poi,116116,25.221863873529,55.263396147872,Dubai,Boat,4c4338a5d691c9b6ee6d8f0a,0,"Boat or Ferry",http://tour-pedia.org/api/getPlaceDetails?id=116116,http://tour-pedia.org/api/getReviewsByPlaceId?placeId=116116
"al Wasal Road",poi,116125,25.147926534074,55.210264717587,Dubai,"Al Safa Vet Clinic",4c4681961ddec928e5d99a32,0,Hospital,http://tour-pedia.org/api/getPlaceDetails?id=116125,http://tour-pedia.org/api/getReviewsByPlaceId?placeId=116125
"Deira, behind Hamarain Centre",poi,116127,25.263093673152,55.326719284058,Dubai,"Dr. Rafih Khoury Clinic",4c469623c047be9aa8212e79,0,"Dentist's Office",http://tour-pedia.org/api/getPlaceDetails?id=116127,http://tour-pedia.org/api/getReviewsByPlaceId?placeId=116127
,poi,116128,25.261626969034,55.371324376925,Dubai,"Dubai Customs (DAFZA)",4c46acd1c047be9ad4492e79,0,"Airport Terminal",http://tour-pedia.org/api/getPlaceDetails?id=116128,http://tour-pedia.org/api/getReviewsByPlaceId?placeId=116128
"Hor Al Anz East",poi,116129,25.280366020635,55.346282493791,Dubai,"Mohammed Bin Rashid Housing Est.",4c46bd9f972c0f47198d2121,0,"Government Building",http://tour-pedia.org/api/getPlaceDetails?id=116129,http://tour-pedia.org/api/getReviewsByPlaceId?placeId=116129
116135,"Dubai Hospital","Dubai - United Arab Emirates",poi,Dubai,25.284853,55.321953,http://tour-pedia.org/api/getPlaceDetails?id=116135,http://tour-pedia.org/api/getReviewsByPlaceId?placeId=116135
,poi,116148,25.091441480828,55.15159298406,Dubai,"Media City Parking",4c4c00dc5609c9b6de45e791,0,Parking,http://tour-pedia.org/api/getPlaceDetails?id=116148,http://tour-pedia.org/api/getReviewsByPlaceId?placeId=116148
,poi,116159,25.064566314317,55.18899008111,Dubai,"Rosary Clinic",4c502bed38b0be9a7c6010fd,0,"Doctor's Office",http://tour-pedia.org/api/getPlaceDetails?id=116159,http://tour-pedia.org/api/getReviewsByPlaceId?placeId=116159
"Building 7 مبنى رقم",poi,116164,25.123682991655,55.424802303314,Dubai,"Mohammed Bin Rashid Al Maktoum Foundation مؤسسة محمد بن راشد آل مكتوم",4c512dcd1c67ef3bfa7e10b9,0,"Government Building",http://tour-pedia.org/api/getPlaceDetails?id=116164,http://tour-pedia.org/api/getReviewsByPlaceId?placeId=116164
,poi,116176,25.233992490402,55.319449519462,Dubai,"Dubai Bone & Joint Center",4c53cc051b46c9b662b98acd,0,"Medical Center",http://tour-pedia.org/api/getPlaceDetails?id=116176,http://tour-pedia.org/api/getReviewsByPlaceId?placeId=116176
"D 92",poi,116177,25.142516403619,55.20657026347,Dubai,"Synergy Medical Centre",4c53f1d9479fc928c9b14d92,0,"Medical Center",http://tour-pedia.org/api/getPlaceDetails?id=116177,http://tour-pedia.org/api/getReviewsByPlaceId?placeId=116177
,poi,116180,25.102390925324,55.155791726766,Dubai,"Dubai Municipality",4c54c4a1728920a101a54483,0,"Government Building",http://tour-pedia.org/api/getPlaceDetails?id=116180,http://tour-pedia.org/api/getReviewsByPlaceId?placeId=116180
"December 2nd St.",poi,116190,25.236726452325,55.276300904407,Dubai,"Diyafah strt",4c570a84b7a31b8d96564fda,0,Road,http://tour-pedia.org/api/getPlaceDetails?id=116190,http://tour-pedia.org/api/getReviewsByPlaceId?placeId=116190
"Jumeirah Beach Hotel",poi,116193,25.14132200995,55.190935134888,Dubai,"Conference Centre - Jumeirah Beach Hotel",4c57f7a07329c92881f28f80,0,"Event Space",http://tour-pedia.org/api/getPlaceDetails?id=116193,http://tour-pedia.org/api/getReviewsByPlaceId?placeId=116193
Khawaneej,poi,116195,25.229578541819,55.457283416127,Dubai,"Al-Khawaneej Health Center",4c581ae87329c928a5489080,0,Hospital,http://tour-pedia.org/api/getPlaceDetails?id=116195,http://tour-pedia.org/api/getReviewsByPlaceId?placeId=116195
"Al Diyafah Str",poi,116208,25.235688765734,55.277520776471,Dubai,"Al Diyafah Specialized Orthodontic & Dental Clinic",4c5ad7d25c57c9b66b311e4a,0,"Dentist's Office",http://tour-pedia.org/api/getPlaceDetails?id=116208,http://tour-pedia.org/api/getReviewsByPlaceId?placeId=116208
"Mai Tower",poi,116211,25.287910654711,55.364892482758,Dubai,"Enterprise Rent A Car",4c5b8c1299ff76b056e0a39e,0,"Rental Car Location",http://tour-pedia.org/api/getPlaceDetails?id=116211,http://tour-pedia.org/api/getReviewsByPlaceId?placeId=116211
,poi,116212,25.233457997556,55.316569805145,Dubai,"Canadian Hospital",4c5bc42594fd0f479be0c645,0,Hospital,http://tour-pedia.org/api/getPlaceDetails?id=116212,http://tour-pedia.org/api/getReviewsByPlaceId?placeId=116212
"Oud Metha",poi,116218,25.236281,55.309744,Dubai,"Travel & More",4c5d010585a1e21ea9705811,0,"General Travel",http://tour-pedia.org/api/getPlaceDetails?id=116218,http://tour-pedia.org/api/getReviewsByPlaceId?placeId=116218
"Next to the Dubai Airport Terminal 1",poi,116219,25.256495654595,55.340580940247,Dubai,"Cargo Village قرية الشحن",4c5d2e632815c9289d29b467,0,"General Travel",http://tour-pedia.org/api/getPlaceDetails?id=116219,http://tour-pedia.org/api/getReviewsByPlaceId?placeId=116219
,poi,116230,25.228031252807,55.291383190279,Dubai,"U.S. Consulate General Dubai",4c610c4013791b8da40851af,0,"Government Building",http://tour-pedia.org/api/getPlaceDetails?id=116230,http://tour-pedia.org/api/getReviewsByPlaceId?placeId=116230
"District 1, Al Razi Building 64, Block E, Floor 3",poi,116231,25.234085606856,55.319352313669,Dubai,"Moorfields Eye Hospital",4c612207de6920a1c98b9764,0,Hospital,http://tour-pedia.org/api/getPlaceDetails?id=116231,http://tour-pedia.org/api/getReviewsByPlaceId?placeId=116231
,poi,116238,25.266540561451,55.392692678673,Dubai,"Dept Of Protective Systems",4c623c13edd320a1469cac29,0,"Police Station",http://tour-pedia.org/api/getPlaceDetails?id=116238,http://tour-pedia.org/api/getReviewsByPlaceId?placeId=116238
Jumairah,poi,116247,25.203339855721,55.251869318716,Dubai,"Street 13C",4c656c3ce1da1b8def1198c3,0,Road,http://tour-pedia.org/api/getPlaceDetails?id=116247,http://tour-pedia.org/api/getReviewsByPlaceId?placeId=116247
"Al Safa",poi,116262,25.183229054977,55.245146048368,Dubai,"Al Hadiqa Road",4c6a715935d3be9a15ca2106,0,Road,http://tour-pedia.org/api/getPlaceDetails?id=116262,http://tour-pedia.org/api/getReviewsByPlaceId?placeId=116262
"Jumeirah Beach Road",poi,116266,25.231222,55.263424,Dubai,"GMC Clinic",4c6b6870e503c928852948b3,0,"Doctor's Office",http://tour-pedia.org/api/getPlaceDetails?id=116266,http://tour-pedia.org/api/getReviewsByPlaceId?placeId=116266
"Palm Jumeirah",poi,116267,25.225030812893,55.265635856084,Dubai,"Convention Centre Atlantis the Palm",4c6be19c23971b8d963a9b8a,0,"Convention Center",http://tour-pedia.org/api/getPlaceDetails?id=116267,http://tour-pedia.org/api/getReviewsByPlaceId?placeId=116267
Satwa,poi,116278,25.236668149729,55.279393799492,Dubai,"Dubai Autism Center (DAC)",4c6f83af344437047d6a215f,0,"Medical Center",http://tour-pedia.org/api/getPlaceDetails?id=116278,http://tour-pedia.org/api/getReviewsByPlaceId?placeId=116278
"Terminal 1, Dubai International Airport",poi,116288,25.252769556326,55.354657173157,Dubai,"Emirates Lounge",4c72fd770e23b1f7ee531fdc,0,"Airport Lounge",http://tour-pedia.org/api/getPlaceDetails?id=116288,http://tour-pedia.org/api/getReviewsByPlaceId?placeId=116288
"Shaikh Zayed Road",poi,116289,25.09371,55.177014,Dubai,"E-Gate Office at Dnata",4c73aa81376da093f382a9c6,0,"Government Building",http://tour-pedia.org/api/getPlaceDetails?id=116289,http://tour-pedia.org/api/getReviewsByPlaceId?placeId=116289
,poi,116292,25.242410175882,55.304702490568,Dubai,"Karama Parking",4c741dc9b474a1cd40acb5bf,0,Parking,http://tour-pedia.org/api/getPlaceDetails?id=116292,http://tour-pedia.org/api/getReviewsByPlaceId?placeId=116292
"Jaddaf - Behind Al Wasl Club",poi,116309,25.215279039209,55.320539474487,Dubai,"Wasel Vehicle Testing واصل لفحص المركبات",4c7c8141aa3ba0938a17ab74,0,Parking,http://tour-pedia.org/api/getPlaceDetails?id=116309,http://tour-pedia.org/api/getReviewsByPlaceId?placeId=116309
,poi,116310,25.102507767088,55.155398254301,Dubai,"Nakheel Sales Office",4c7cb6e0aa3ba093f67fab74,0,"Government Building",http://tour-pedia.org/api/getPlaceDetails?id=116310,http://tour-pedia.org/api/getReviewsByPlaceId?placeId=116310
,poi,116319,25.098543284823,55.16924634211,Dubai,"MYS Healthcare",4c80a15ed92ea09389a13972,0,"Medical Center",http://tour-pedia.org/api/getPlaceDetails?id=116319,http://tour-pedia.org/api/getReviewsByPlaceId?placeId=116319
,poi,116321,25.098574,55.173544,Dubai,"DK Healthcare",4c80a954e602b1f791a58b7a,0,"Medical Center",http://tour-pedia.org/api/getPlaceDetails?id=116321,http://tour-pedia.org/api/getReviewsByPlaceId?placeId=116321
,poi,116329,25.274084655909,55.306451914943,Dubai,"Naif Road",4c8228e9d8086dcb47a17352,0,Road,http://tour-pedia.org/api/getPlaceDetails?id=116329,http://tour-pedia.org/api/getReviewsByPlaceId?placeId=116329
,poi,116339,25.236651920739,55.289315562704,Dubai,"Afghan Consulate",4c846ce0e602b1f74f55af7a,0,"Embassy / Consulate",http://tour-pedia.org/api/getPlaceDetails?id=116339,http://tour-pedia.org/api/getReviewsByPlaceId?placeId=116339
,poi,116343,25.262619721273,55.386515110683,Dubai,"RTA Al Qusais",4c85d50ed34ca14309e34a80,0,Courthouse,http://tour-pedia.org/api/getPlaceDetails?id=116343,http://tour-pedia.org/api/getReviewsByPlaceId?placeId=116343
"Al Razi Bldg, 64 Block C",poi,116344,25.103308,55.169564,Dubai,"UK Dental clinic",4c86240f2f1c236a9f355a43,0,"Dentist's Office",http://tour-pedia.org/api/getPlaceDetails?id=116344,http://tour-pedia.org/api/getReviewsByPlaceId?placeId=116344
"Ibn Battuta Mall",poi,116354,25.04764,55.122828,Dubai,BOOKSPLUS,4c891701da5da1cd358039e9,0,Library,http://tour-pedia.org/api/getPlaceDetails?id=116354,http://tour-pedia.org/api/getReviewsByPlaceId?placeId=116354
,poi,116365,25.123768,55.204422,Dubai,"MOE Taxi Stand",4c8b8a191797236a89b96b88,0,Taxi,http://tour-pedia.org/api/getPlaceDetails?id=116365,http://tour-pedia.org/api/getReviewsByPlaceId?placeId=116365
"Next to al twar centre",poi,116379,25.266116212387,55.381564725667,Dubai,"Ministry of justice",4c8dc6cc1992a1cd5637d8fb,0,"Government Building",http://tour-pedia.org/api/getPlaceDetails?id=116379,http://tour-pedia.org/api/getReviewsByPlaceId?placeId=116379
Mirdif,poi,116384,25.212482170305,55.422749047674,Dubai,"Mirdif 35b street",4c8e76b44e95236a84317cca,0,Road,http://tour-pedia.org/api/getPlaceDetails?id=116384,http://tour-pedia.org/api/getReviewsByPlaceId?placeId=116384
,poi,116386,25.253740855212,55.309632286434,Dubai,"Ministry of Foreign Affairs",4c8f0d92ad70a143eac68e0f,0,"Government Building",http://tour-pedia.org/api/getPlaceDetails?id=116386,http://tour-pedia.org/api/getReviewsByPlaceId?placeId=116386
,poi,116387,25.221646892694,55.437137608629,Dubai,"Oris Dentist",4c8f1aeadaa93704872f52b1,0,"Medical Center",http://tour-pedia.org/api/getPlaceDetails?id=116387,http://tour-pedia.org/api/getReviewsByPlaceId?placeId=116387
,poi,116393,25.254464871966,55.309486494348,Dubai,"The consulate parking place",4c9064a6352da1cdf66911b2,0,Parking,http://tour-pedia.org/api/getPlaceDetails?id=116393,http://tour-pedia.org/api/getReviewsByPlaceId?placeId=116393
,poi,116399,25.217829686051,55.302218800787,Dubai,"Albeda' Clinic عيادة البدع",4c91d393ae45224b270deb97,0,"Medical Center",http://tour-pedia.org/api/getPlaceDetails?id=116399,http://tour-pedia.org/api/getReviewsByPlaceId?placeId=116399
"Healtcare City",poi,116400,25.233291494034,55.325681718903,Dubai,"Dubai Cares",4c91dd7d7f3b8cfa6335a01e,0,"Medical Center",http://tour-pedia.org/api/getPlaceDetails?id=116400,http://tour-pedia.org/api/getReviewsByPlaceId?placeId=116400
"Al Qasr Hotel, Madinat Jumeriah",poi,116401,25.131220681222,55.183296203613,Dubai,"Business Centre - Al Qasr Hotel",4c91feec238c6dcba75ec455,0,"Convention Center",http://tour-pedia.org/api/getPlaceDetails?id=116401,http://tour-pedia.org/api/getReviewsByPlaceId?placeId=116401
"Dubai Marina Walk",poi,116404,25.084678222747,55.147732794285,Dubai,"Captain Jack Dhow",4c92491057e5b60c6bb6671c,0,"Boat or Ferry",http://tour-pedia.org/api/getPlaceDetails?id=116404,http://tour-pedia.org/api/getReviewsByPlaceId?placeId=116404
"Discovery Gardens",poi,116425,25.047404863218,55.131577686305,Dubai,DEWA,4c95b492f244b1f78e872e1d,0,"Government Building",http://tour-pedia.org/api/getPlaceDetails?id=116425,http://tour-pedia.org/api/getReviewsByPlaceId?placeId=116425
"Muhaisnah, near Lulu village",poi,116426,25.279195612849,55.414347356041,Dubai,"Dubai taxi (RTA)",4c95b85894a0236a311f9912,0,"Government Building",http://tour-pedia.org/api/getPlaceDetails?id=116426,http://tour-pedia.org/api/getReviewsByPlaceId?placeId=116426
"DIFC District, Opposite the Gate Building",poi,116428,25.21365803914,55.280756950378,Dubai,"DIFC Courts محاكم مركز دبي المالي العالمي",4c95c0aa01dd76b0d3d4be48,0,Courthouse,http://tour-pedia.org/api/getPlaceDetails?id=116428,http://tour-pedia.org/api/getReviewsByPlaceId?placeId=116428
,poi,116430,25.185097826961,55.293159338131,Dubai,"International Humanitarian City",4c96fb4658d4b60cfdb23f29,0,"Government Building",http://tour-pedia.org/api/getPlaceDetails?id=116430,http://tour-pedia.org/api/getReviewsByPlaceId?placeId=116430
"KV, Block 8",poi,116431,25.102266243335,55.161478414916,Dubai,"Tecom. Licensing & Registration",4c97285df7cfa1cd5ff3cb15,0,"Government Building",http://tour-pedia.org/api/getPlaceDetails?id=116431,http://tour-pedia.org/api/getReviewsByPlaceId?placeId=116431
,poi,116432,25.272148183981,55.371054199378,Dubai,"Ministry of Public Works",4c972df703413704374d8aef,0,"Government Building",http://tour-pedia.org/api/getPlaceDetails?id=116432,http://tour-pedia.org/api/getReviewsByPlaceId?placeId=116432
"Jumeirah - Behind Dubai Zoo",poi,116441,25.222335476488,55.257089138031,Dubai,"Moroccan Consulate - Dubai",4c99890678fc236a49132e97,0,"Embassy / Consulate",http://tour-pedia.org/api/getPlaceDetails?id=116441,http://tour-pedia.org/api/getReviewsByPlaceId?placeId=116441
"Al Twar, Al Qusais",poi,116442,25.273712754369,55.378441156233,Dubai,"Dubai Municipality - Al Twar Center",4c99ccceb8e9224bb314483d,0,"Government Building",http://tour-pedia.org/api/getPlaceDetails?id=116442,http://tour-pedia.org/api/getReviewsByPlaceId?placeId=116442
"Sheikh Zayed Rd.",poi,116450,25.229711782092,55.289597511291,Dubai,"Trade Center Roundabout",4c9b1f6ad4b1b1f7b1e6d535,0,Road,http://tour-pedia.org/api/getPlaceDetails?id=116450,http://tour-pedia.org/api/getReviewsByPlaceId?placeId=116450
,poi,116456,25.03581,55.255886,Dubai,VetCare,4c9c521d8afca0934559ec15,0,"Medical Center",http://tour-pedia.org/api/getPlaceDetails?id=116456,http://tour-pedia.org/api/getReviewsByPlaceId?placeId=116456
"Eppco Station next to RTA Building",poi,116466,25.122264766121,55.205183029175,Dubai,"Tasjeel Car Registration تسجيل لتسجيل المركبات",4c9dcc402fb1a143b3e6e340,0,"Government Building",http://tour-pedia.org/api/getPlaceDetails?id=116466,http://tour-pedia.org/api/getReviewsByPlaceId?placeId=116466
"Murjanet Alkhaleej building 4th floor 403",poi,116470,25.2633556459,55.328666567802,Dubai,"dr hassan fayek poly clinic",4c9ef44319e4236a8df45489,0,"Medical Center",http://tour-pedia.org/api/getPlaceDetails?id=116470,http://tour-pedia.org/api/getReviewsByPlaceId?placeId=116470
"Al Fuhaidi, Opposite the Dubai Museum",poi,116472,25.26340415931,55.298030376434,Dubai,"Ruler's Court ديوان سمو الحاكم",4c9f1db28afca09372570716,0,"Capitol Building",http://tour-pedia.org/api/getPlaceDetails?id=116472,http://tour-pedia.org/api/getReviewsByPlaceId?placeId=116472
,poi,116478,25.231967778364,55.323440451618,Dubai,"Samsung Medical Center مركز سامسونج الطبي",4ca0411019e4236a2f0d6089,0,Hospital,http://tour-pedia.org/api/getPlaceDetails?id=116478,http://tour-pedia.org/api/getReviewsByPlaceId?placeId=116478
"Ground Floor, Al Hadia Tower",poi,116479,25.114483660554,55.203573703766,Dubai,"Maximum Rent A Car",4ca0958c0df79c74b4c42c1a,0,"General Travel",http://tour-pedia.org/api/getPlaceDetails?id=116479,http://tour-pedia.org/api/getReviewsByPlaceId?placeId=116479
"Terminal 3, Dubai Airport",poi,116481,25.244914599865,55.360669211981,Dubai,"Emirates First & Business Class Checkin",4ca1200446978cfa5485b97f,0,"Airport Terminal",http://tour-pedia.org/api/getPlaceDetails?id=116481,http://tour-pedia.org/api/getReviewsByPlaceId?placeId=116481
,poi,116482,25.208593882879,55.271227285558,Dubai,"Shangri-la Hotel Parking",4ca1f53f2fb1a143682e0941,0,Parking,http://tour-pedia.org/api/getPlaceDetails?id=116482,http://tour-pedia.org/api/getReviewsByPlaceId?placeId=116482
,poi,116491,25.181668,55.224968,Dubai,"Dubai Smile Dental Center",4ca369127f84224b619dc458,0,"Dentist's Office",http://tour-pedia.org/api/getPlaceDetails?id=116491,http://tour-pedia.org/api/getReviewsByPlaceId?placeId=116491
Deira,poi,116493,25.267372022117,55.303228466058,Dubai,"Abra Station",4ca37dc1750ca09326681967,0,"Boat or Ferry",http://tour-pedia.org/api/getPlaceDetails?id=116493,http://tour-pedia.org/api/getReviewsByPlaceId?placeId=116493
,poi,116495,25.202200231625,55.267918799358,Dubai,"Dr. Raja Asfour's Clinic",4ca4324c750ca093cf831f67,0,"Doctor's Office",http://tour-pedia.org/api/getPlaceDetails?id=116495,http://tour-pedia.org/api/getReviewsByPlaceId?placeId=116495
,poi,116500,25.093212417336,55.155107193644,Dubai,"DMC Bus Station",4ca4cb81750ca093497c2467,0,"Bus Station",http://tour-pedia.org/api/getPlaceDetails?id=116500,http://tour-pedia.org/api/getReviewsByPlaceId?placeId=116500
"Tawar Street",poi,116522,25.260609755303,55.37281036377,Dubai,"Dubai Airport Freezone",4ca9aaefae1eef3b41343347,0,Building,http://tour-pedia.org/api/getPlaceDetails?id=116522,http://tour-pedia.org/api/getReviewsByPlaceId?placeId=116522
,poi,116526,25.23057714384,55.32520105669,Dubai,"Tower Clinic",4ca9eed42776b60c075c440d,0,"Dentist's Office",http://tour-pedia.org/api/getPlaceDetails?id=116526,http://tour-pedia.org/api/getReviewsByPlaceId?placeId=116526
116527,"Ibn Battuta Metro Station","Dubai - United Arab Emirates",poi,Dubai,25.046738,55.117496,http://tour-pedia.org/api/getPlaceDetails?id=116527,http://tour-pedia.org/api/getReviewsByPlaceId?placeId=116527
,poi,116529,25.264129225291,55.329651334789,Dubai,"Abu Baker Street",4cac3bc2d971b1f7b0a52ee1,0,Road,http://tour-pedia.org/api/getPlaceDetails?id=116529,http://tour-pedia.org/api/getReviewsByPlaceId?placeId=116529
,poi,116530,24.820969964558,55.576955688304,Dubai,"The Middle Of The Desert In Dubai",4cac818aa6e08cfab8bfab94,0,"General Travel",http://tour-pedia.org/api/getPlaceDetails?id=116530,http://tour-pedia.org/api/getReviewsByPlaceId?placeId=116530
,poi,116559,25.271769261284,55.345547824994,Dubai,"Galadari Tunnel",4cb1d31a562d224b05c72188,0,Road,http://tour-pedia.org/api/getPlaceDetails?id=116559,http://tour-pedia.org/api/getReviewsByPlaceId?placeId=116559
,poi,116560,25.272932,55.374267,Dubai,"emirates driving school bus stop",4cb1e25d1463a14311e0a8a9,0,"Bus Line",http://tour-pedia.org/api/getPlaceDetails?id=116560,http://tour-pedia.org/api/getReviewsByPlaceId?placeId=116560
,poi,116563,25.252965387631,55.338120457316,Dubai,"Ministry Of Culture, Youth & Community Development",4cb2ba66cbab236aeaceb273,0,"Government Building",http://tour-pedia.org/api/getPlaceDetails?id=116563,http://tour-pedia.org/api/getReviewsByPlaceId?placeId=116563
"Barsha (Bur Dubai Traffic Department), Near MOE",poi,116564,25.124314388138,55.206245183945,Dubai,"Dubai Courts محاكم دبي",4cb2c6c2db32f04d657dd24d,0,Courthouse,http://tour-pedia.org/api/getPlaceDetails?id=116564,http://tour-pedia.org/api/getReviewsByPlaceId?placeId=116564
,poi,116566,25.241819,55.366751,Dubai,"Emirates EK761 DXB-JNB",4cb3aad739458cfa05071ca0,0,Plane,http://tour-pedia.org/api/getPlaceDetails?id=116566,http://tour-pedia.org/api/getReviewsByPlaceId?placeId=116566
"DXB Airport",poi,116567,25.247897607983,55.371394623225,Dubai,"Emirates Flight EK003",4cb43542562d224baa663288,0,Plane,http://tour-pedia.org/api/getPlaceDetails?id=116567,http://tour-pedia.org/api/getReviewsByPlaceId?placeId=116567
"Dubai World Trade Centre",poi,116568,25.221915144658,55.288856696464,Dubai,"Zabeel Hall",4cb44f84aef16dcbd1c0cd54,0,"Convention Center",http://tour-pedia.org/api/getPlaceDetails?id=116568,http://tour-pedia.org/api/getReviewsByPlaceId?placeId=116568
"Al Ittihad Rd",poi,116569,25.280595526538,55.355250276686,Dubai,"Al mullah tunnel",4cb475e8562d224b54793488,0,Road,http://tour-pedia.org/api/getPlaceDetails?id=116569,http://tour-pedia.org/api/getReviewsByPlaceId?placeId=116569
,poi,116572,25.224392475447,55.401886879762,Dubai,"Rashidiya Car Park",4cb4ea7a56fca1cda3374b18,0,Parking,http://tour-pedia.org/api/getPlaceDetails?id=116572,http://tour-pedia.org/api/getReviewsByPlaceId?placeId=116572
E102,poi,116575,25.286039,55.359909,Dubai,"Kalba Road",4cb55b22e262b60c131c67e0,0,Road,http://tour-pedia.org/api/getPlaceDetails?id=116575,http://tour-pedia.org/api/getReviewsByPlaceId?placeId=116575
"Port Rashid Rd",poi,116576,25.237048,55.339882,Dubai,"Luxe Dental Clinic",4cb55b5452edb1f727e466fe,0,"Dentist's Office",http://tour-pedia.org/api/getPlaceDetails?id=116576,http://tour-pedia.org/api/getReviewsByPlaceId?placeId=116576
"Abu Hail",poi,116588,25.277900991436,55.333464497859,Dubai,"Canadian Specialist Hospital",4cb789b3035d236aa945c64e,0,Hospital,http://tour-pedia.org/api/getPlaceDetails?id=116588,http://tour-pedia.org/api/getReviewsByPlaceId?placeId=116588
"Red Line (33)",poi,116593,25.114716809493,55.190699100494,Dubai,"Sharaf DG Metro Station | محطة شرف دي جي",4cb8589ec7228cfac13b07ce,0,"Train Station",http://tour-pedia.org/api/getPlaceDetails?id=116593,http://tour-pedia.org/api/getReviewsByPlaceId?placeId=116593
116609,"World Trade Centre Metro Station","Sheikh Zayed Road - Dubai - United Arab Emirates",poi,Dubai,25.224877,55.285117,http://tour-pedia.org/api/getPlaceDetails?id=116609,http://tour-pedia.org/api/getReviewsByPlaceId?placeId=116609
116611,"Business Bay Metro Station 1","Sheikh Zayed Road - Dubai - United Arab Emirates",poi,Dubai,25.191469,55.260312,http://tour-pedia.org/api/getPlaceDetails?id=116611,http://tour-pedia.org/api/getReviewsByPlaceId?placeId=116611
"DNATA Building",poi,116615,25.186262785202,55.257231295109,Dubai,"Emirates Clinic",4cbc3c02035d236a2043e44e,0,"Doctor's Office",http://tour-pedia.org/api/getPlaceDetails?id=116615,http://tour-pedia.org/api/getReviewsByPlaceId?placeId=116615
"Near Sharjah Univercity",poi,116618,25.289831382196,55.44602394104,Dubai,"Tayyab Boats",4cbc8c0ec7228cfab39724ce,0,"Boat or Ferry",http://tour-pedia.org/api/getPlaceDetails?id=116618,http://tour-pedia.org/api/getReviewsByPlaceId?placeId=116618
,poi,116619,25.161616063598,55.232823216921,Dubai,"Off-Road Motors",4cbd5a1690c9a1438896a0d6,0,"General Travel",http://tour-pedia.org/api/getPlaceDetails?id=116619,http://tour-pedia.org/api/getReviewsByPlaceId?placeId=116619
"Rigga St.",poi,116621,25.263607155693,55.323192025567,Dubai,"Rigga Street",4cbd6d7fadcd54811a8233a2,0,Road,http://tour-pedia.org/api/getPlaceDetails?id=116621,http://tour-pedia.org/api/getReviewsByPlaceId?placeId=116621
"St 24B villa 45, Jumeira",poi,116622,25.198298673183,55.245496767771,Dubai,"Algerian Consulate",4cbd6dffa33bb1f7e0f89efd,0,"Embassy / Consulate",http://tour-pedia.org/api/getPlaceDetails?id=116622,http://tour-pedia.org/api/getReviewsByPlaceId?placeId=116622
"D 89",poi,116626,25.146944885009,55.6288425265,Dubai,"Dubai Airport - Check-in",4cbe6d02020d468814a35c38,0,"Airport Terminal",http://tour-pedia.org/api/getPlaceDetails?id=116626,http://tour-pedia.org/api/getReviewsByPlaceId?placeId=116626
,poi,116629,25.175914250307,55.23207332934,Dubai,"Infinity Polyclinic",4cbef4abacd48cfa5c5f403f,0,"Medical Center",http://tour-pedia.org/api/getPlaceDetails?id=116629,http://tour-pedia.org/api/getReviewsByPlaceId?placeId=116629
,poi,116636,25.251846599564,55.346314905793,Dubai,"Gate 13 Parking",4cc04353b6c4224be6e9f794,0,"Airport Gate",http://tour-pedia.org/api/getPlaceDetails?id=116636,http://tour-pedia.org/api/getReviewsByPlaceId?placeId=116636
"Al Muhaisnah 1",poi,116647,25.252000050904,55.418029078724,Dubai,"Lootah City",4cc28b1dc844721ee474dd01,0,"Rest Area",http://tour-pedia.org/api/getPlaceDetails?id=116647,http://tour-pedia.org/api/getReviewsByPlaceId?placeId=116647
,poi,116652,25.192436854076,55.259715597341,Dubai,"House Of Cars",4cc2e44a3d7fa1cd73b0a15f,0,Road,http://tour-pedia.org/api/getPlaceDetails?id=116652,http://tour-pedia.org/api/getReviewsByPlaceId?placeId=116652
DMC,poi,116657,25.090403123624,55.152520031431,Dubai,"Dubai Media City Bus Stop",4cc3f5a81e596dcb4863ce67,0,"Bus Line",http://tour-pedia.org/api/getPlaceDetails?id=116657,http://tour-pedia.org/api/getReviewsByPlaceId?placeId=116657
"at Terminal 1",poi,116666,25.25200866086,55.354872098429,Dubai,"Air France Business Lounge",4cc5cc5242d1b60cddb12513,0,"Airport Lounge",http://tour-pedia.org/api/getPlaceDetails?id=116666,http://tour-pedia.org/api/getReviewsByPlaceId?placeId=116666
,poi,116673,25.286424,55.425364,Dubai,"E 311",4cc78f025b7aa143b607307d,0,Road,http://tour-pedia.org/api/getPlaceDetails?id=116673,http://tour-pedia.org/api/getReviewsByPlaceId?placeId=116673
"BBC World Building # 10, G 13",poi,116677,25.101682,55.169882,Dubai,"Emirates Medical Centre BBC World Building",4cc7d3150fa2721e266660b1,0,"Dentist's Office",http://tour-pedia.org/api/getPlaceDetails?id=116677,http://tour-pedia.org/api/getReviewsByPlaceId?placeId=116677
,poi,116678,25.256407654509,55.309076117946,Dubai,"Consulate of Palestine",4cc7dc885b7aa14307bd317d,0,"Government Building",http://tour-pedia.org/api/getPlaceDetails?id=116678,http://tour-pedia.org/api/getReviewsByPlaceId?placeId=116678
116686,"Jumeirah Lake Towers Metro Station","Sheikh Zayed Road - Dubai - United Arab Emirates",poi,Dubai,25.07098,55.138704,http://tour-pedia.org/api/getPlaceDetails?id=116686,http://tour-pedia.org/api/getReviewsByPlaceId?placeId=116686
"UM Hurair",poi,116688,25.247214076163,55.315550572852,Dubai,"Oudd Metha Street شارع عود ميثا",4cc98e8c41e75481a8245d84,0,Road,http://tour-pedia.org/api/getPlaceDetails?id=116688,http://tour-pedia.org/api/getReviewsByPlaceId?placeId=116688
"Al Thanya",poi,116699,25.136739,55.214059,Dubai,"Thai Consul Residence",4ccaccfcb8c8224bab2618ba,0,"Embassy / Consulate",http://tour-pedia.org/api/getPlaceDetails?id=116699,http://tour-pedia.org/api/getReviewsByPlaceId?placeId=116699
Bldg#7,poi,116708,25.242108753008,55.282233099326,Dubai,"Office - Carfare rent a car",4ccc23e4ba79a1cd33ec38cb,0,"Rental Car Location",http://tour-pedia.org/api/getPlaceDetails?id=116708,http://tour-pedia.org/api/getReviewsByPlaceId?placeId=116708
Jumeirah,poi,116714,25.210299491239,55.256037712097,Dubai,"Al Wasl Road شارع الوصل",4cce3b6197d0224beee76ab8,0,Road,http://tour-pedia.org/api/getPlaceDetails?id=116714,http://tour-pedia.org/api/getReviewsByPlaceId?placeId=116714
,poi,116718,25.234724569505,55.279237262868,Dubai,"Al dhiyafa Roundabout",4cce82ff7c2ff04d9725a57e,0,Road,http://tour-pedia.org/api/getPlaceDetails?id=116718,http://tour-pedia.org/api/getReviewsByPlaceId?placeId=116718
,poi,116720,25.240326176654,55.276036421149,Dubai,"jumeirah boat",4ccebe21ee23a143f9bd2da8,0,"Boat or Ferry",http://tour-pedia.org/api/getPlaceDetails?id=116720,http://tour-pedia.org/api/getReviewsByPlaceId?placeId=116720
Jumeirah,poi,116735,25.139424502258,55.194743688245,Dubai,"Royal thai consulate",4cd0ed5e06b54688bf06de94,0,"Embassy / Consulate",http://tour-pedia.org/api/getPlaceDetails?id=116735,http://tour-pedia.org/api/getReviewsByPlaceId?placeId=116735
"DXB Airport",poi,116736,25.252750149265,55.364441871643,Dubai,"Emirates Airlines Flight 358",4cd1018948b837049046f6de,0,Plane,http://tour-pedia.org/api/getPlaceDetails?id=116736,http://tour-pedia.org/api/getReviewsByPlaceId?placeId=116736
"Media One Hotel",poi,116739,25.089886207478,55.152056506486,Dubai,"Training Room",4cd143556200b1f70ebad828,0,"Meeting Room",http://tour-pedia.org/api/getPlaceDetails?id=116739,http://tour-pedia.org/api/getReviewsByPlaceId?placeId=116739
"Jumeirah Beach Road",poi,116745,25.188093971901,55.230244494285,Dubai,"Dr. Nicolas And ASP",4cd2a75d3e0c8cfa79d91812,0,"Dentist's Office",http://tour-pedia.org/api/getPlaceDetails?id=116745,http://tour-pedia.org/api/getReviewsByPlaceId?placeId=116745
Sharjah,poi,116755,25.306973126154,55.444676193534,Dubai,"Sheikh Mohammad Bin Zayed Rd",4cd41f2a9828b60c8b44d984,0,Road,http://tour-pedia.org/api/getPlaceDetails?id=116755,http://tour-pedia.org/api/getReviewsByPlaceId?placeId=116755
,poi,116759,25.241674752885,55.367163735939,Dubai,"Bus bay 1 EGHQ",4cd4aa0367c7236a88ab0e77,0,"Bus Line",http://tour-pedia.org/api/getPlaceDetails?id=116759,http://tour-pedia.org/api/getReviewsByPlaceId?placeId=116759
"Media One Hotel",poi,116764,25.066274683003,55.134309707655,Dubai,"Broadcast Meeting Room",4cd53ce5b2a43704008a7c44,0,"Meeting Room",http://tour-pedia.org/api/getPlaceDetails?id=116764,http://tour-pedia.org/api/getReviewsByPlaceId?placeId=116764
"Al Nahda Rd",poi,116765,25.262933362439,55.38515318625,Dubai,"Dubai Municipality",4cd553e7ab19a0937e6a3eeb,0,"Government Building",http://tour-pedia.org/api/getPlaceDetails?id=116765,http://tour-pedia.org/api/getReviewsByPlaceId?placeId=116765
DAFZA,poi,116770,25.258541511819,55.370773215621,Dubai,"Executive Flight Centre - Dxb Int'l Airport",4cd6259189eb6dcb57e32d1e,0,"Airport Terminal",http://tour-pedia.org/api/getPlaceDetails?id=116770,http://tour-pedia.org/api/getReviewsByPlaceId?placeId=116770
"The City Hospital",poi,116779,25.287261,55.323547,Dubai,"Emergency Dept The City Hospital",4cd7bf002a8054819291982c,0,"Medical Center",http://tour-pedia.org/api/getPlaceDetails?id=116779,http://tour-pedia.org/api/getReviewsByPlaceId?placeId=116779
,poi,116781,25.232570252432,55.277553162691,Dubai,"New Horizon Travel Agency",4cd7f4e82a8054815187992c,0,"General Travel",http://tour-pedia.org/api/getPlaceDetails?id=116781,http://tour-pedia.org/api/getReviewsByPlaceId?placeId=116781
,poi,116782,25.229026,55.413649,Dubai,"Mirdif 69 B Street",4cd8177fa423a35d4b02ea42,0,Road,http://tour-pedia.org/api/getPlaceDetails?id=116782,http://tour-pedia.org/api/getReviewsByPlaceId?placeId=116782
,poi,116786,25.233632688724,55.389761924744,Dubai,"F16 Parking Gate",4cd8c3825e1b721ec3fc3bd9,0,Plane,http://tour-pedia.org/api/getPlaceDetails?id=116786,http://tour-pedia.org/api/getReviewsByPlaceId?placeId=116786
,poi,116789,25.231625484957,55.38418580051,Dubai,"Residency And Foreign Affairs Bin Sougat",4cd91a85da85224bfaca4fca,0,"Government Building",http://tour-pedia.org/api/getPlaceDetails?id=116789,http://tour-pedia.org/api/getReviewsByPlaceId?placeId=116789
"Jabel Ali",poi,116799,25.044659369722,55.139321335464,Dubai,"Cedars Jabel Ali International Hospital",4cdadf2fa1bba35d295691e5,0,Hospital,http://tour-pedia.org/api/getPlaceDetails?id=116799,http://tour-pedia.org/api/getReviewsByPlaceId?placeId=116799
"Media One Hotel",poi,116803,25.089853778574,55.151921761335,Dubai,Headline,4cdb8331a1bba35df75495e5,0,"Meeting Room",http://tour-pedia.org/api/getPlaceDetails?id=116803,http://tour-pedia.org/api/getReviewsByPlaceId?placeId=116803
"Near Shindagha Tunnel",poi,116804,25.278241,55.292556,Dubai,"UAE Coast Guard",4cdb9114a1bba35d409795e5,0,"Government Building",http://tour-pedia.org/api/getPlaceDetails?id=116804,http://tour-pedia.org/api/getReviewsByPlaceId?placeId=116804
"Jumeira, str.6B, villa 21",poi,116805,25.129631,55.200747,Dubai,"Consulate General Of Russia In Dubai",4cdb95d9d4ecb1f7d3b37a48,0,"Capitol Building",http://tour-pedia.org/api/getPlaceDetails?id=116805,http://tour-pedia.org/api/getReviewsByPlaceId?placeId=116805
"Maritime City, Port Rashid",poi,116806,25.24361,55.295166,Dubai,"National Transport Authority",4cdb995399026dcb22060e81,0,"Government Building",http://tour-pedia.org/api/getPlaceDetails?id=116806,http://tour-pedia.org/api/getReviewsByPlaceId?placeId=116806
Ductac,poi,116824,25.117420037101,55.199564721478,Dubai,"The Old Library",4cde49a4aba88cfaede840d7,0,Library,http://tour-pedia.org/api/getPlaceDetails?id=116824,http://tour-pedia.org/api/getReviewsByPlaceId?placeId=116824
,poi,116831,25.239162458354,55.272452483168,Dubai,"Government Building H1",4cdefb73f8cdb1f757bf8e12,0,"Government Building",http://tour-pedia.org/api/getPlaceDetails?id=116831,http://tour-pedia.org/api/getReviewsByPlaceId?placeId=116831
,poi,116833,25.242142999637,55.345067052462,Dubai,"Round Table Pizza",4ce000bddf986ea8390be516,0,"Airport Food Court",http://tour-pedia.org/api/getPlaceDetails?id=116833,http://tour-pedia.org/api/getReviewsByPlaceId?placeId=116833
Zaabeel,poi,116840,25.212834571391,55.304810478701,Dubai,"Sheikh Mohammed Palace",4ce21589db125481178145ce,0,"Convention Center",http://tour-pedia.org/api/getPlaceDetails?id=116840,http://tour-pedia.org/api/getReviewsByPlaceId?placeId=116840
,poi,116848,25.232848441008,55.385050502337,Dubai,"Al Majlis - Dubai International Airport",4ce353e1c46e6dcb4e3bd515,0,Airport,http://tour-pedia.org/api/getPlaceDetails?id=116848,http://tour-pedia.org/api/getReviewsByPlaceId?placeId=116848
"Al khail gate building 1-15",poi,116851,25.13937951163,55.251574516296,Dubai,Home,4ce3b0a0bddcb1f7f5c97d89,0,Road,http://tour-pedia.org/api/getPlaceDetails?id=116851,http://tour-pedia.org/api/getReviewsByPlaceId?placeId=116851
,poi,116873,25.273718,55.38833,Dubai,"Emirates bus depot",4ce770008ef78cfa32a4939b,0,"Bus Station",http://tour-pedia.org/api/getPlaceDetails?id=116873,http://tour-pedia.org/api/getReviewsByPlaceId?placeId=116873
"Green Community",poi,116875,25.018148444033,55.161009450947,Dubai,"Kamakazi Roundabout",4ce7abd78ef78cfa28f9949b,0,Road,http://tour-pedia.org/api/getPlaceDetails?id=116875,http://tour-pedia.org/api/getReviewsByPlaceId?placeId=116875
"9th Floor, Al Fattan Building",poi,116883,25.251144669772,55.345050846693,Dubai,"Department of Tourism and Commerce Marketing",4ce8a738baa6a1cdfb9b2f6c,0,"Government Building",http://tour-pedia.org/api/getPlaceDetails?id=116883,http://tour-pedia.org/api/getReviewsByPlaceId?placeId=116883
60,poi,116885,25.238523,55.366573,Dubai,"PMS Unit - RTA - Um Malromool",4ce8cd819f776ea894856022,0,"Government Building",http://tour-pedia.org/api/getPlaceDetails?id=116885,http://tour-pedia.org/api/getReviewsByPlaceId?placeId=116885
,poi,116889,25.194693288888,55.235461362682,Dubai,"Dermalase Clinic",4ce90942e1eeb60cbadfa6ae,0,"Medical Center",http://tour-pedia.org/api/getPlaceDetails?id=116889,http://tour-pedia.org/api/getReviewsByPlaceId?placeId=116889
,poi,116898,25.20089,55.279909,Dubai,"In a Taxi",4ce9efed8ef78cfaad0fa49b,0,Taxi,http://tour-pedia.org/api/getPlaceDetails?id=116898,http://tour-pedia.org/api/getReviewsByPlaceId?placeId=116898
"Town Centre, Jumeirah",poi,116900,25.215013,55.25121,Dubai,"Dubai Physiotherapy & Family Medicine Clinic",4cea328f595cb1f7baa2d214,0,"Doctor's Office",http://tour-pedia.org/api/getPlaceDetails?id=116900,http://tour-pedia.org/api/getReviewsByPlaceId?placeId=116900
"Jebel Ali",poi,116904,24.970241338813,55.082383983481,Dubai,JAFZA,4cea7165fe90a35dcfbd4d0e,0,"Government Building",http://tour-pedia.org/api/getPlaceDetails?id=116904,http://tour-pedia.org/api/getReviewsByPlaceId?placeId=116904
"Madinat Jumeirah Convention Centre",poi,116906,25.135164183981,55.1873087883,Dubai,"World Economic Forum Summit on the Global Agenda",4cea8c84b4952d43367163f5,0,"Event Space",http://tour-pedia.org/api/getPlaceDetails?id=116906,http://tour-pedia.org/api/getReviewsByPlaceId?placeId=116906
,poi,116911,25.205232373634,55.252883434296,Dubai,"DEWA - Al Wasl Sub-Station",4ceb5edd595cb1f7fd08d914,0,"Government Building",http://tour-pedia.org/api/getPlaceDetails?id=116911,http://tour-pedia.org/api/getReviewsByPlaceId?placeId=116911
,poi,116912,25.097231,55.331669,Dubai,"DEWA - Falcon City Sub-Station",4ceb7942e1eeb60ce2b0b3ae,0,"Government Building",http://tour-pedia.org/api/getPlaceDetails?id=116912,http://tour-pedia.org/api/getReviewsByPlaceId?placeId=116912
,poi,116917,25.233932,55.435206,Dubai,"Prime Medical Centre Mirdif",4cec9e423b03f04d76ed2fdc,0,Hospital,http://tour-pedia.org/api/getPlaceDetails?id=116917,http://tour-pedia.org/api/getReviewsByPlaceId?placeId=116917
,poi,116922,25.23747432375,55.294039327664,Dubai,"Traffic Jam :-)",4ced305f5de16ea8a4a8b496,0,Road,http://tour-pedia.org/api/getPlaceDetails?id=116922,http://tour-pedia.org/api/getReviewsByPlaceId?placeId=116922
,poi,116924,25.276857,55.362452,Dubai,"DM Housing 1",4ced3a094cd4236ae6cba663,0,"Bus Line",http://tour-pedia.org/api/getPlaceDetails?id=116924,http://tour-pedia.org/api/getReviewsByPlaceId?placeId=116924
"Al muteena st.",poi,116926,25.27285329494,55.316765599678,Dubai,"Al muteena bldg",4ced720cb80da093c3fd2100,0,Road,http://tour-pedia.org/api/getPlaceDetails?id=116926,http://tour-pedia.org/api/getReviewsByPlaceId?placeId=116926
,poi,116938,24.938643448456,55.038412833844,Dubai,"Aster Medical Centre",4cefc0894cd4236abf45b463,0,"Doctor's Office",http://tour-pedia.org/api/getPlaceDetails?id=116938,http://tour-pedia.org/api/getReviewsByPlaceId?placeId=116938
,poi,116942,25.202726889936,55.250568869879,Dubai,"Dr Michael's Dental Clinic",4cf092eec9af6dcbbcf6937f,0,"Dentist's Office",http://tour-pedia.org/api/getPlaceDetails?id=116942,http://tour-pedia.org/api/getReviewsByPlaceId?placeId=116942
,poi,116959,25.236584599068,55.360906939726,Dubai,"Emirates Transport",4cf351d91c158cfae516ddb5,0,"Government Building",http://tour-pedia.org/api/getPlaceDetails?id=116959,http://tour-pedia.org/api/getReviewsByPlaceId?placeId=116959
,poi,116963,25.081,55.150334,Dubai,"Expedition, Not Range Rover, To DXB?",4cf40ec588de3704e1a6822b,0,Taxi,http://tour-pedia.org/api/getPlaceDetails?id=116963,http://tour-pedia.org/api/getReviewsByPlaceId?placeId=116963
"T3 Dubai Airport",poi,116972,25.245794082733,55.359453568921,Dubai,"Baggage Claim",4cf57812eb096ea8a720c048,0,"Airport Terminal",http://tour-pedia.org/api/getPlaceDetails?id=116972,http://tour-pedia.org/api/getReviewsByPlaceId?placeId=116972
,poi,116974,25.29074,55.336318,Dubai,"Philippine Overseas Labor Office",4cf5ecba64e3721eaa801ec8,0,"Government Building",http://tour-pedia.org/api/getPlaceDetails?id=116974,http://tour-pedia.org/api/getReviewsByPlaceId?placeId=116974
"Al Quds Street",poi,116979,25.270954662661,55.347546570859,Dubai,"flydubai Airline Head Office",4cf6a917e308236a6f6ae7ac,0,Airport,http://tour-pedia.org/api/getPlaceDetails?id=116979,http://tour-pedia.org/api/getReviewsByPlaceId?placeId=116979
"Al Wasl Road",poi,116995,25.183129,55.235495,Dubai,"Al Moosa Mesical Centre",4cf9ef35dccef04d2e75b29c,0,Hospital,http://tour-pedia.org/api/getPlaceDetails?id=116995,http://tour-pedia.org/api/getReviewsByPlaceId?placeId=116995
,poi,116996,25.150064086842,55.212001435711,Dubai,"Specialist Dental Center",4cf9f6202d80a1437ab341d8,0,"Dentist's Office",http://tour-pedia.org/api/getPlaceDetails?id=116996,http://tour-pedia.org/api/getReviewsByPlaceId?placeId=116996
"Rm 309 Avenue Bldg. (In front of Burjuman Center)",poi,117009,25.267398456963,55.306797484443,Dubai,"Health Plus Clinic",4cfb2de4dccef04d2a16ba9c,0,"Doctor's Office",http://tour-pedia.org/api/getPlaceDetails?id=117009,http://tour-pedia.org/api/getReviewsByPlaceId?placeId=117009
,poi,117012,25.270521762104,55.308600947706,Dubai,"Dr. Jack Dental Clinic",4cfb71787945224bda3586e7,0,"Dentist's Office",http://tour-pedia.org/api/getPlaceDetails?id=117012,http://tour-pedia.org/api/getReviewsByPlaceId?placeId=117012
117020,"Philippines Consulate","Al Qusais 3 - Dubai - United Arab Emirates",poi,Dubai,25.267784,55.395733,http://tour-pedia.org/api/getPlaceDetails?id=117020,http://tour-pedia.org/api/getReviewsByPlaceId?placeId=117020
"Cargo Village - Level 1, Emirates Building",poi,117022,25.255478197386,55.342614613878,Dubai,"Dubai Customs جمارك دبي",4cfc968cee9cb60ce62096ad,0,"Government Building",http://tour-pedia.org/api/getPlaceDetails?id=117022,http://tour-pedia.org/api/getReviewsByPlaceId?placeId=117022
"Union Co-Op, Level 1",poi,117024,25.187486092407,55.239000320435,Dubai,"RTA Office مكتب هيئة الطرق والمواصلات",4cfcee03dccef04d2cdec29c,0,"City Hall",http://tour-pedia.org/api/getPlaceDetails?id=117024,http://tour-pedia.org/api/getReviewsByPlaceId?placeId=117024
117026,"Dubai Cruise Terminal مبنى دبي السياحي","D 92",poi,Dubai,25.272155661242,55.280252695084,http://tour-pedia.org/api/getPlaceDetails?id=117026,http://tour-pedia.org/api/getReviewsByPlaceId?placeId=117026
"31 St., Al Rashidiya",poi,117027,25.223295357722,55.392995352951,Dubai,"Public Library | المكتبة العامة",4cfe15d4c51fa1cd0563f42b,0,Library,http://tour-pedia.org/api/getPlaceDetails?id=117027,http://tour-pedia.org/api/getReviewsByPlaceId?placeId=117027
,poi,117028,25.151085,55.419513,Dubai,"RTA Tasjeel, Warsan",4cfe33d3c51fa1cd540ef52b,0,"Government Building",http://tour-pedia.org/api/getPlaceDetails?id=117028,http://tour-pedia.org/api/getReviewsByPlaceId?placeId=117028
"Above Air India Express office",poi,117032,25.264354765272,55.328749378863,Dubai,"First Medical Center",4cff852d1ebe6dcb2fcc8191,0,"Medical Center",http://tour-pedia.org/api/getPlaceDetails?id=117032,http://tour-pedia.org/api/getReviewsByPlaceId?placeId=117032
,poi,117033,25.19433258975,55.235191609907,Dubai,"Open MRI For Spine Surgery",4cff904975d3236a3bd9e5f7,0,"Medical Center",http://tour-pedia.org/api/getPlaceDetails?id=117033,http://tour-pedia.org/api/getReviewsByPlaceId?placeId=117033
"Al Wasl Road",poi,117058,25.245440769979,55.29986476077,Dubai,"Iranian Hospital",4d0330a328926ea85e4b64c2,0,Hospital,http://tour-pedia.org/api/getPlaceDetails?id=117058,http://tour-pedia.org/api/getReviewsByPlaceId?placeId=117058
"Bur Dubai",poi,117072,25.24818118701,55.298201853759,Dubai,"Kuwait street",4d04f19330a58cfa6894a2e7,0,Road,http://tour-pedia.org/api/getPlaceDetails?id=117072,http://tour-pedia.org/api/getReviewsByPlaceId?placeId=117072
,poi,117073,25.23026,55.26193,Dubai,"12A St., Jumeirah1",4d052cf254d0236a3c04f3d5,0,Road,http://tour-pedia.org/api/getPlaceDetails?id=117073,http://tour-pedia.org/api/getReviewsByPlaceId?placeId=117073
"Fairmont accommodation",poi,117080,25.131911,55.256621,Dubai,"Music room",4d06a151dc45a09306cbf4c6,0,"Light Rail",http://tour-pedia.org/api/getPlaceDetails?id=117080,http://tour-pedia.org/api/getReviewsByPlaceId?placeId=117080
,poi,117087,25.239141,55.301837,Dubai,"Dr Ismail Medical Center",4d0877134adb3704f1fffc54,0,"Medical Center",http://tour-pedia.org/api/getPlaceDetails?id=117087,http://tour-pedia.org/api/getReviewsByPlaceId?placeId=117087
,poi,117092,25.211959988398,55.27345640257,Dubai,"Etihad bus stop",4d08df474adb37044e5cff54,0,"Bus Station",http://tour-pedia.org/api/getPlaceDetails?id=117092,http://tour-pedia.org/api/getReviewsByPlaceId?placeId=117092
"at Terminal 1",poi,117093,25.253274138825,55.352962017059,Dubai,"Business Class Lounge",4d09321e84ec224b7fa32d62,0,"Airport Lounge",http://tour-pedia.org/api/getPlaceDetails?id=117093,http://tour-pedia.org/api/getReviewsByPlaceId?placeId=117093
"Dubai Cruise Terminal",poi,117094,25.274788,55.283817,Dubai,"AIDA Diva",4d09a3abacd4a1cd5d057e93,0,"Boat or Ferry",http://tour-pedia.org/api/getPlaceDetails?id=117094,http://tour-pedia.org/api/getReviewsByPlaceId?placeId=117094
"2nd street",poi,117097,25.19038470395,55.461480818707,Dubai,"Belhoul Specialty Hospital",4d0ac2b86c51a143b547a635,0,Hospital,http://tour-pedia.org/api/getPlaceDetails?id=117097,http://tour-pedia.org/api/getReviewsByPlaceId?placeId=117097
"Discovery Gardens",poi,117098,25.050465127616,55.126227058096,Dubai,"Intersection Ibn Batutta",4d0b2ef56aa054818c7ce8aa,0,Road,http://tour-pedia.org/api/getPlaceDetails?id=117098,http://tour-pedia.org/api/getReviewsByPlaceId?placeId=117098
,poi,117103,25.272301376528,55.374101850857,Dubai,"Al nahda rd",4d0d7abdd515236a2fb20d4b,0,Road,http://tour-pedia.org/api/getPlaceDetails?id=117103,http://tour-pedia.org/api/getReviewsByPlaceId?placeId=117103
DEWA,poi,117105,25.225321,55.375771,Dubai,"DEWA Jebel Ali Station",4d0ddfd43bbaa1433cab3fda,0,"Government Building",http://tour-pedia.org/api/getPlaceDetails?id=117105,http://tour-pedia.org/api/getReviewsByPlaceId?placeId=117105
,poi,117106,25.273692820164,55.395708658701,Dubai,"Baghdad St",4d0de07eeea9b60ca2f0603f,0,Road,http://tour-pedia.org/api/getPlaceDetails?id=117106,http://tour-pedia.org/api/getReviewsByPlaceId?placeId=117106
,poi,117107,25.231829527207,55.44639058238,Dubai,"Al Khawaneej road",4d0de2e8d515236a54d90f4b,0,Road,http://tour-pedia.org/api/getPlaceDetails?id=117107,http://tour-pedia.org/api/getReviewsByPlaceId?placeId=117107
,poi,117108,25.224285573724,55.351290291888,Dubai,"DNRD Office, Festival Tower",4d0dfed9e0b98cfab549df93,0,"Government Building",http://tour-pedia.org/api/getPlaceDetails?id=117108,http://tour-pedia.org/api/getReviewsByPlaceId?placeId=117108
,poi,117109,25.199970890386,55.27307510376,Dubai,"sharaf dg dubai mall",4d0e3b40257d6dcb2ee9a067,0,"Train Station",http://tour-pedia.org/api/getPlaceDetails?id=117109,http://tour-pedia.org/api/getReviewsByPlaceId?placeId=117109
Mirdif,poi,117115,25.210223097224,55.419672658605,Dubai,"Shorooq Mirdif Intersection",4d0ede8171e8a1cd270978bd,0,Road,http://tour-pedia.org/api/getPlaceDetails?id=117115,http://tour-pedia.org/api/getReviewsByPlaceId?placeId=117115
"Sheikh Zayed Road",poi,117116,25.227750552469,55.289752837511,Dubai,"General Consulate of Switzerland",4d0f45a4e2365481eedc70ea,0,"Embassy / Consulate",http://tour-pedia.org/api/getPlaceDetails?id=117116,http://tour-pedia.org/api/getReviewsByPlaceId?placeId=117116
,poi,117120,25.259687195195,55.291188841974,Dubai,"Khalid Bin Waleed St",4d0f6d265584f04de4d05116,0,Road,http://tour-pedia.org/api/getPlaceDetails?id=117120,http://tour-pedia.org/api/getReviewsByPlaceId?placeId=117120
,poi,117125,25.276433189823,55.347924717156,Dubai,"UAE National Council of Tourism & Antiquities",4d10780471e8a1cd55cf80bd,0,"Government Building",http://tour-pedia.org/api/getPlaceDetails?id=117125,http://tour-pedia.org/api/getReviewsByPlaceId?placeId=117125
"Dubai Health Care City",poi,117129,25.230254155072,55.323769887265,Dubai,"Fetal Medicine Center",4d11c9aa99b78cfadf5dccd5,0,"Medical Center",http://tour-pedia.org/api/getPlaceDetails?id=117129,http://tour-pedia.org/api/getReviewsByPlaceId?placeId=117129
"Baniyas Rd",poi,117134,25.266935883473,55.297837257385,Dubai,"Deira Old Souk Marine Transport Station",4d1248390e9e8eec81f0481c,0,"Boat or Ferry",http://tour-pedia.org/api/getPlaceDetails?id=117134,http://tour-pedia.org/api/getReviewsByPlaceId?placeId=117134
,poi,117136,25.234892530638,55.425344328507,Dubai,"Al Khawaneej Mirdif Intersection",4d12fcc480f6721ea0d01beb,0,Road,http://tour-pedia.org/api/getPlaceDetails?id=117136,http://tour-pedia.org/api/getReviewsByPlaceId?placeId=117136
,poi,117145,25.098197859545,55.200147146552,Dubai,"Dubai - Abu Dhabi Road",4d14c24d1356a0939b55cb82,0,Road,http://tour-pedia.org/api/getPlaceDetails?id=117145,http://tour-pedia.org/api/getReviewsByPlaceId?placeId=117145
,poi,117148,25.020437800746,55.080310630095,Dubai,"Cedars Jebel Ali Hospital",4d14ee216c8b548169f2dacc,0,Hospital,http://tour-pedia.org/api/getPlaceDetails?id=117148,http://tour-pedia.org/api/getReviewsByPlaceId?placeId=117148
"13th St",poi,117157,25.278988766885,55.403303121721,Dubai,"city hospital",4d16f2f51356a0939cddd882,0,Hospital,http://tour-pedia.org/api/getPlaceDetails?id=117157,http://tour-pedia.org/api/getReviewsByPlaceId?placeId=117157
,poi,117176,25.276022,55.349181,Dubai,"Jebel ali industrial metro station",4d1aa3a36526a35d75660916,0,"Light Rail",http://tour-pedia.org/api/getPlaceDetails?id=117176,http://tour-pedia.org/api/getReviewsByPlaceId?placeId=117176
"Al Khaleej Rd.",poi,117191,25.268973637936,55.281347832309,Dubai,"Queen Elizabeth II",4d1e4110f7a9a14359bb189f,0,"Boat or Ferry",http://tour-pedia.org/api/getPlaceDetails?id=117191,http://tour-pedia.org/api/getReviewsByPlaceId?placeId=117191
"Karma Market Area",poi,117198,25.23751895034,55.303179872272,Dubai,"Sirajudeen Medical Centre مركز سراج الدين الطبي",4d1f1e4ddd6a236af0442d38,0,"Medical Center",http://tour-pedia.org/api/getPlaceDetails?id=117198,http://tour-pedia.org/api/getReviewsByPlaceId?placeId=117198
"Dubai Marina Walk",poi,117206,25.084862099335,55.148704110342,Dubai,"Drs. Nicolas & Asp",4d207fa1756e8cfa73d36c54,0,"Dentist's Office",http://tour-pedia.org/api/getPlaceDetails?id=117206,http://tour-pedia.org/api/getReviewsByPlaceId?placeId=117206
,poi,117208,25.280447240726,55.315210368401,Dubai,"6th Street",4d20d08a5c4ca1cd366ba43d,0,Road,http://tour-pedia.org/api/getPlaceDetails?id=117208,http://tour-pedia.org/api/getReviewsByPlaceId?placeId=117208
"Red Line (40)",poi,117209,25.026204874909,55.101531744003,Dubai,"Energy Metro Station | محطة الطاقة",4d212462b69c6dcb59bc7695,0,"Train Station",http://tour-pedia.org/api/getPlaceDetails?id=117209,http://tour-pedia.org/api/getReviewsByPlaceId?placeId=117209
"Dubai International Airport",poi,117212,25.110795,55.37812,Dubai,"The Emirates Airport Transfer",4d21847429292d43ba065274,0,Taxi,http://tour-pedia.org/api/getPlaceDetails?id=117212,http://tour-pedia.org/api/getReviewsByPlaceId?placeId=117212
"Next to Karama Post Office",poi,117214,25.242913043845,55.308579349121,Dubai,"Dubai Central Laboratory",4d21a60af7a9a143d3ef379f,0,"Medical Center",http://tour-pedia.org/api/getPlaceDetails?id=117214,http://tour-pedia.org/api/getReviewsByPlaceId?placeId=117214
"Burj Nahar",poi,117215,25.27483,55.315864,Dubai,"Dewa Burj Nahar",4d21a8d116cfb60cbf0d6361,0,"Government Building",http://tour-pedia.org/api/getPlaceDetails?id=117215,http://tour-pedia.org/api/getReviewsByPlaceId?placeId=117215
,poi,117225,25.047268970782,55.130015031034,Dubai,"Aster Medical Center",4d231837b69c6dcb990b8895,0,Hospital,http://tour-pedia.org/api/getPlaceDetails?id=117225,http://tour-pedia.org/api/getReviewsByPlaceId?placeId=117225
,poi,117226,25.239709354294,55.273143351178,Dubai,"Al Mina Road",4d2329a4bdd7a093714103cf,0,Road,http://tour-pedia.org/api/getPlaceDetails?id=117226,http://tour-pedia.org/api/getReviewsByPlaceId?placeId=117226
"Salwan Building, Knowledge Village",poi,117230,25.1049436018,55.168372392654,Dubai,"Dubai Technology And Media Free Zone Authority سلطة المنطقة الحرة للتقنية والإعلام",4d2430d3f39ca143436e73b8,0,"City Hall",http://tour-pedia.org/api/getPlaceDetails?id=117230,http://tour-pedia.org/api/getReviewsByPlaceId?placeId=117230
"Al Karama",poi,117239,25.247559683274,55.302845115821,Dubai,"Union Medical Centre",4d255337002f5481c139a0f3,0,"Medical Center",http://tour-pedia.org/api/getPlaceDetails?id=117239,http://tour-pedia.org/api/getReviewsByPlaceId?placeId=117239
"30b street al wuheida",poi,117247,25.288825861813,55.345299335487,Dubai,"30b Street Al Wuheida",4d2615e1d2668cfa8894c4db,0,Road,http://tour-pedia.org/api/getPlaceDetails?id=117247,http://tour-pedia.org/api/getReviewsByPlaceId?placeId=117247
,poi,117264,25.130708852445,55.197488516173,Dubai,"Kids First",4d2827248292236a36b516bb,0,"Medical Center",http://tour-pedia.org/api/getPlaceDetails?id=117264,http://tour-pedia.org/api/getReviewsByPlaceId?placeId=117264
"G8 Murjan, Dubai Marina Walk",poi,117269,25.085184387602,55.148709499941,Dubai,"Kaya Skin Clinic",4d28b1c63c79548170b8d09b,0,"Medical Center",http://tour-pedia.org/api/getPlaceDetails?id=117269,http://tour-pedia.org/api/getReviewsByPlaceId?placeId=117269
,poi,117277,25.153388422803,55.22585329132,Dubai,"Wooridul Spine Centre",4d2ace9f915fa093ded2110a,0,Hospital,http://tour-pedia.org/api/getPlaceDetails?id=117277,http://tour-pedia.org/api/getReviewsByPlaceId?placeId=117277
"D 89",poi,117285,25.249499849372,55.352208689713,Dubai,"Dubai Passport Control",4d2b51a055a8b60cb9c1e6c0,0,"General Travel",http://tour-pedia.org/api/getPlaceDetails?id=117285,http://tour-pedia.org/api/getReviewsByPlaceId?placeId=117285
"Dubai Police General Headquarters",poi,117286,25.223807,55.350258,Dubai,"Dubai Police Poly Clinic",4d2bf04c849f3704ee559641,0,"Doctor's Office",http://tour-pedia.org/api/getPlaceDetails?id=117286,http://tour-pedia.org/api/getReviewsByPlaceId?placeId=117286
"Al Wasl Road",poi,117294,25.148217629363,55.211234092712,Dubai,UPANDRUNNING,4d2d34e0a40da35d65309077,0,"Doctor's Office",http://tour-pedia.org/api/getPlaceDetails?id=117294,http://tour-pedia.org/api/getReviewsByPlaceId?placeId=117294
,poi,117295,25.222072,55.376115,Dubai,"North Carolina Dental Practice, Dubai Healthcare City",4d2d36ac762fa1432c497764,0,"Dentist's Office",http://tour-pedia.org/api/getPlaceDetails?id=117295,http://tour-pedia.org/api/getReviewsByPlaceId?placeId=117295
"Movenpick JBR",poi,117296,25.08044865058,55.135888608059,Dubai,"Melrose Ballroom",4d2d5ea1f728b60cfd229afd,0,"Meeting Room",http://tour-pedia.org/api/getPlaceDetails?id=117296,http://tour-pedia.org/api/getReviewsByPlaceId?placeId=117296
,poi,117312,25.240658690246,55.369454765523,Dubai,"Airport for shekhs",4d2fda1aa62d721e4315957d,0,Airport,http://tour-pedia.org/api/getPlaceDetails?id=117312,http://tour-pedia.org/api/getReviewsByPlaceId?placeId=117312
,poi,117316,25.249983,55.302019,Dubai,"Asian Beauty Center",4d30237fd902236ac24650e4,0,"Medical Center",http://tour-pedia.org/api/getPlaceDetails?id=117316,http://tour-pedia.org/api/getReviewsByPlaceId?placeId=117316
"Knowledge Village",poi,117335,25.101841,55.15642,Dubai,"Human Relations Institute",4d31c8ce2c76a1431e4c69c7,0,"Doctor's Office",http://tour-pedia.org/api/getPlaceDetails?id=117335,http://tour-pedia.org/api/getReviewsByPlaceId?placeId=117335
"Al Barsha 1, Before the ENOC Gas Station",poi,117337,25.091414711135,55.187695977212,Dubai,"Emirates Identity Authority  هيئة الإمارات للهوية",4d32a658b609370464a8f9df,0,"Government Building",http://tour-pedia.org/api/getPlaceDetails?id=117337,http://tour-pedia.org/api/getReviewsByPlaceId?placeId=117337
,poi,117345,25.154107439266,55.404249097699,Dubai,"Al Manama Road",4d33d4a05017a0935c11569b,0,Road,http://tour-pedia.org/api/getPlaceDetails?id=117345,http://tour-pedia.org/api/getReviewsByPlaceId?placeId=117345
,poi,117356,25.206556,55.315489,Dubai,"On Board a 777, Heading someplace",4d34ca13329e54819637c51d,0,Plane,http://tour-pedia.org/api/getPlaceDetails?id=117356,http://tour-pedia.org/api/getReviewsByPlaceId?placeId=117356
"Umm El Sheif area, Street 3, Villa 14",poi,117360,25.133625070485,55.210156848056,Dubai,"Kazakhstan Consulate",4d3578355017a09337dc639b,0,"Embassy / Consulate",http://tour-pedia.org/api/getPlaceDetails?id=117360,http://tour-pedia.org/api/getReviewsByPlaceId?placeId=117360
"at Terminal 2",poi,117362,25.264859552592,55.358090400696,Dubai,"Gate 2",4d359eaec75a6ea826bc29ae,0,"Airport Gate",http://tour-pedia.org/api/getPlaceDetails?id=117362,http://tour-pedia.org/api/getReviewsByPlaceId?placeId=117362
,poi,117369,25.25726555411,55.509397394685,Dubai,"Sharjah Economic Department",4d36a49b4754f04d1d0b9c7e,0,"Government Building",http://tour-pedia.org/api/getPlaceDetails?id=117369,http://tour-pedia.org/api/getReviewsByPlaceId?placeId=117369
,poi,117373,25.260584389183,55.335738432852,Dubai,"Federal Authority for Government Human Resources",4d36ed561931224b88f30fcb,0,"Government Building",http://tour-pedia.org/api/getPlaceDetails?id=117373,http://tour-pedia.org/api/getReviewsByPlaceId?placeId=117373
"Opposite Princess Hotel",poi,117377,25.266461,55.380989,Dubai,"Fancy Bus Stop",4d37a0513d958cfa6fe5aa71,0,"Bus Station",http://tour-pedia.org/api/getPlaceDetails?id=117377,http://tour-pedia.org/api/getReviewsByPlaceId?placeId=117377
"28th floor",poi,117379,25.227052372235,55.288586776287,Dubai,"Consulate General Of Japan",4d37e9833ffba14364105756,0,"Embassy / Consulate",http://tour-pedia.org/api/getPlaceDetails?id=117379,http://tour-pedia.org/api/getReviewsByPlaceId?placeId=117379
,poi,117384,24.966521,55.054566,Dubai,"Fancy Conex Pt Eve",4d383411803ba35d689599fc,0,"Bus Station",http://tour-pedia.org/api/getPlaceDetails?id=117384,http://tour-pedia.org/api/getReviewsByPlaceId?placeId=117384
Deira,poi,117385,25.274416984212,55.349572373849,Dubai,NMC,4d38464dd60c6dcb3b5576bc,0,Office,http://tour-pedia.org/api/getPlaceDetails?id=117385,http://tour-pedia.org/api/getReviewsByPlaceId?placeId=117385
,poi,117388,25.30309,55.441985,Dubai,"Bashar Pharmacy",4d386e470f81b60cdde93f3a,0,"Medical Center",http://tour-pedia.org/api/getPlaceDetails?id=117388,http://tour-pedia.org/api/getReviewsByPlaceId?placeId=117388
"Near Gate 7",poi,117412,25.10570721751,55.179203906103,Dubai,"Fancy Conexn Morning",4d3bab94af8ca143ba32faf6,0,"Bus Station",http://tour-pedia.org/api/getPlaceDetails?id=117412,http://tour-pedia.org/api/getReviewsByPlaceId?placeId=117412
117418,"Dubai International Convention and Exhibition Centre مركز دبي للمؤتمرات والمعارض","Zaabeel 2",poi,Dubai,25.22299547995,55.287365913391,http://tour-pedia.org/api/getPlaceDetails?id=117418,http://tour-pedia.org/api/getReviewsByPlaceId?placeId=117418
,poi,117421,24.960872,55.04768,Dubai,"conexn pt morn fancy",4d3cfdd984d46ea8bff7025d,0,"Bus Station",http://tour-pedia.org/api/getPlaceDetails?id=117421,http://tour-pedia.org/api/getReviewsByPlaceId?placeId=117421
,poi,117428,24.960282744876,55.05046534474,Dubai,"Gate7 Signal",4d3d789805b8721ecc2b9537,0,"General Travel",http://tour-pedia.org/api/getPlaceDetails?id=117428,http://tour-pedia.org/api/getReviewsByPlaceId?placeId=117428
,poi,117433,25.280169874555,55.378454993735,Dubai,"Ministry Of Labour & Social Affairs",4d3ea96c557d6dcbc6765044,0,"Government Building",http://tour-pedia.org/api/getPlaceDetails?id=117433,http://tour-pedia.org/api/getReviewsByPlaceId?placeId=117433
117434,Execujet,DAFZA,poi,Dubai,25.258581408719,55.370470618746,http://tour-pedia.org/api/getPlaceDetails?id=117434,http://tour-pedia.org/api/getReviewsByPlaceId?placeId=117434
"Ship in Dubai - Port Rashid",poi,117443,25.263977,55.289806,Dubai,"Logos Hope",4d4027a400e8a35de048f8fa,0,"Boat or Ferry",http://tour-pedia.org/api/getPlaceDetails?id=117443,http://tour-pedia.org/api/getReviewsByPlaceId?placeId=117443
,poi,117446,25.232817320439,55.352035814085,Dubai,"Dubai Judicial Institute",4d4106d0255d8cfaa51a6c05,0,"Government Building",http://tour-pedia.org/api/getPlaceDetails?id=117446,http://tour-pedia.org/api/getReviewsByPlaceId?placeId=117446
"Media One Hotel",poi,117447,25.089853778574,55.151921761335,Dubai,Newsroom,4d4139ed255d8cfa21cd6d05,0,"Meeting Room",http://tour-pedia.org/api/getPlaceDetails?id=117447,http://tour-pedia.org/api/getReviewsByPlaceId?placeId=117447
,poi,117455,25.258745,55.346982,Dubai,"EK New Facilities",4d42eb5c08d16dcb06ed7554,0,Airport,http://tour-pedia.org/api/getPlaceDetails?id=117455,http://tour-pedia.org/api/getReviewsByPlaceId?placeId=117455
"DXB Airport",poi,117461,25.253390580643,55.364742279053,Dubai,"Emirates Airlines Flight 600",4d438d8d3616b60c6221dbc2,0,Plane,http://tour-pedia.org/api/getPlaceDetails?id=117461,http://tour-pedia.org/api/getReviewsByPlaceId?placeId=117461
Jumeirah,poi,117462,25.202432573743,55.250595849945,Dubai,"Canadian Chiropractic & Natural Herbal Centre",4d43b496e198721e7239b48b,0,"Medical Center",http://tour-pedia.org/api/getPlaceDetails?id=117462,http://tour-pedia.org/api/getReviewsByPlaceId?placeId=117462
"Aeroport rd.",poi,117464,25.245495338642,55.312526580243,Dubai,"Dubai International Aeroport Smoking Room",4d43e86f3616b60cd7a8dec2,0,Airport,http://tour-pedia.org/api/getPlaceDetails?id=117464,http://tour-pedia.org/api/getReviewsByPlaceId?placeId=117464
,poi,117474,25.134649,55.3001292,Dubai,"Nad Al Sheba Vets",4d44e695bbb1a14399994c72,0,Veterinarian,http://tour-pedia.org/api/getPlaceDetails?id=117474,http://tour-pedia.org/api/getReviewsByPlaceId?placeId=117474
,poi,117482,25.226706359335,55.437115978046,Dubai,"Mirdif Street 59",4d456959c3e5f04da27aa420,0,Road,http://tour-pedia.org/api/getPlaceDetails?id=117482,http://tour-pedia.org/api/getReviewsByPlaceId?placeId=117482
"Airport Rd.",poi,117490,25.245350954461,55.360415276245,Dubai,"Dubai International Airport - STPC - Arrival",4d46b4ab1b62b1f7402009e3,0,"Airport Terminal",http://tour-pedia.org/api/getPlaceDetails?id=117490,http://tour-pedia.org/api/getReviewsByPlaceId?placeId=117490
"Dubai Healthcare City",poi,117499,25.23386814169,55.318385662014,Dubai,"Al Razi Bldg DHCC",4d47d1654e7a6ea8e5276f32,0,"Medical Center",http://tour-pedia.org/api/getPlaceDetails?id=117499,http://tour-pedia.org/api/getReviewsByPlaceId?placeId=117499
"Sheikh Zayed Road",poi,117506,25.116397411606,55.192469358444,Dubai,"Al Barsha Salik Gate",4d49004d5241236ab4107104,0,Road,http://tour-pedia.org/api/getPlaceDetails?id=117506,http://tour-pedia.org/api/getReviewsByPlaceId?placeId=117506
,poi,117510,25.232237,55.326978,Dubai,Symbiosis,4d495a1f782f37047ec46b37,0,"Medical Center",http://tour-pedia.org/api/getPlaceDetails?id=117510,http://tour-pedia.org/api/getReviewsByPlaceId?placeId=117510
"Karama, Behind KFC",poi,117533,25.248659644567,55.302423972453,Dubai,"Book World Library مكتبة عالم الكتب",4d4ae06348a06dcb3fd37fa2,0,Library,http://tour-pedia.org/api/getPlaceDetails?id=117533,http://tour-pedia.org/api/getReviewsByPlaceId?placeId=117533
"Mall of the Emirates",poi,117534,25.119971109233,55.200999219999,Dubai,"Taxi Stand Near Carrefour",4d4ae2657d36f04d122a20e5,0,Taxi,http://tour-pedia.org/api/getPlaceDetails?id=117534,http://tour-pedia.org/api/getReviewsByPlaceId?placeId=117534
,poi,117538,25.275590446188,55.348470331149,Dubai,"Hor Al Anz RTA Bus Station",4d4b23b0f65bb1f7bd1d55a6,0,"Bus Station",http://tour-pedia.org/api/getPlaceDetails?id=117538,http://tour-pedia.org/api/getReviewsByPlaceId?placeId=117538
,poi,117552,25.230963310625,55.32578433253,Dubai,"Drs. Nicolas & Asp University Dubai Healthcare City",4d4d0e2613d88cfa675704da,0,"Dentist's Office",http://tour-pedia.org/api/getPlaceDetails?id=117552,http://tour-pedia.org/api/getReviewsByPlaceId?placeId=117552
